[{"name":"Pat Roberts","address":[{"line1":"100 Military Plz.","line2":"PO Box 550","city":"Dodge City","state":"KS","zip":"67801","phone":"620-227-2244","longitude":-100.0164714,"latitude":37.7540807},{"line1":"11900 College Boulevard","line2":"Suite 203","city":"Overland Park","state":"KS","zip":"66210","phone":"913-451-9343","longitude":-94.7243276,"latitude":38.9280229},{"line1":"444 SE. Quincy","line2":"Room 392","line3":"Frank Carlson Federal Bldg.","city":"Topeka","state":"KS","zip":"66683","phone":"785-295-2745","longitude":-95.670288,"latitude":39.0529221},{"line1":"125 N. Market St.","line2":"Suite 1120","city":"Wichita","state":"KS","zip":"67202","phone":"316-263-0416","longitude":-97.3372521,"latitude":37.6870978}],"party":"Republican","phones":["202-224-4774"],"emails":[],"urls":["https://www.roberts.senate.gov"],"photoUrl":"","channels":[{"type":"Twitter","id":"SenPatRoberts"},{"type":"Facebook","id":"SenPatRoberts"},{"type":"YouTube","id":"SenPatRoberts"}],"sources":["theunitedstates.io"],"office":{"name":"United States Senate","level":"federal"}},{"name":"Jerry Moran","address":[{"line1":"1200 Main St.","line2":"Suite 402","city":"Hays","state":"KS","zip":"67601","phone":"785-628-6401","longitude":-99.3296381,"latitude":38.8728651},{"line1":"923 Westport Pl.","line2":"Suite 210","city":"Manhattan","state":"KS","zip":"66502","phone":"785-539-8973","longitude":-96.6064052,"latitude":39.1928877},{"line1":"23600 College Blvd.","line2":"Suite 201","city":"Olathe","state":"KS","zip":"66061","phone":"913-393-0711","longitude":-94.8584293,"latitude":38.927647},{"line1":"306 N. Broadway","line2":"Suite 125","city":"Pittsburg","state":"KS","zip":"66762","phone":"620-232-2286","longitude":-94.7044411,"latitude":37.4105276},{"line1":"100 North Broadway","line2":"Suite 210","city":"Wichita","state":"KS","zip":"67202","phone":"316-269-9259","longitude":-97.3371211,"latitude":37.6865773}],"party":"Republican","phones":["202-224-6521"],"emails":[],"urls":["https://www.moran.senate.gov"],"photoUrl":"","channels":[{"type":"Twitter","id":"JerryMoran"},{"type":"Facebook","id":"jerrymoran"},{"type":"YouTube","id":"senatorjerrymoran"},{"type":"Instagram","id":"senjerrymoran"}],"sources":["theunitedstates.io"],"office":{"name":"United States Senate","level":"federal"}},{"name":"Laura Kelly","address":[],"party":"Democratic","phones":["785-296-3232"],"emails":[],"urls":["https://governor.kansas.gov"],"photoUrl":"https://cdn.civil.services/us-governors/headshots/512x512/laura-kelly.jpg","channels":[{"type":"Facebook","id":"LauraKellyKS"},{"type":"Twitter","id":"senatorkelly"}],"sources":["civil.services"],"office":{"name":"Governor","level":"state"}}]