[{"name":"Mazie K. Hirono","address":[{"line1":"300 Ala Moana Blvd.","line2":"Rm. 3-106","line3":"Prince Kuhio Federal Building","city":"Honolulu","state":"HI","zip":"96850","phone":"808-522-8970","longitude":-157.862353,"latitude":21.3036893}],"party":"Democratic","phones":["202-224-6361"],"emails":[],"urls":["https://www.hirono.senate.gov"],"photoUrl":"https://theunitedstates.io/images/congress/450x550/H001042.jpg","channels":[{"type":"Twitter","id":"MazieHirono"},{"type":"Facebook","id":"senatorhirono"},{"type":"YouTube","id":"CongresswomanHirono"},{"type":"Instagram","id":"maziehirono"}],"sources":["theunitedstates.io"],"office":{"name":"United States Senate","level":"federal"}},{"name":"Brian Schatz","address":[{"line1":"300 Ala Moana Blvd.","line2":"Room 7-212","city":"Honolulu","state":"HI","zip":"96850","phone":"808-523-2061","longitude":-157.862353,"latitude":21.3036893}],"party":"Democratic","phones":["202-224-3934"],"emails":[],"urls":["https://www.schatz.senate.gov"],"photoUrl":"https://theunitedstates.io/images/congress/450x550/S001194.jpg","channels":[{"type":"Twitter","id":"SenBrianSchatz"},{"type":"Facebook","id":"SenBrianSchatz"},{"type":"YouTube","id":"senbrianschatz"}],"sources":["theunitedstates.io"],"office":{"name":"United States Senate","level":"federal"}},{"name":"David Ige","address":[],"party":"Democratic","phones":["808-586-0034"],"emails":[],"urls":["http://governor.hawaii.gov"],"photoUrl":"https://cdn.civil.services/us-governors/headshots/512x512/david-ige.jpg","channels":[{"type":"Facebook","id":"GovernorDavidIge"},{"type":"Twitter","id":"GovHawaii"}],"sources":["civil.services"],"office":{"name":"Governor","level":"state"}}]