[{"name":"Mike Lee","address":[{"line1":"324 25th St.","line2":"Suite 1410","line3":"James V. Hansen Federal Building","city":"Ogden","state":"UT","zip":"84401","phone":"801-392-9633","longitude":-111.9726125,"latitude":41.2206774},{"line1":"125 S. State","line2":"Suite 4225","line3":"Wallace F. Bennett Federal Building","city":"Salt Lake City","state":"UT","zip":"84138","phone":"801-524-5933","longitude":-111.8871382,"latitude":40.7667476},{"line1":"285 W. Tabernacle","line2":"Suite 200","city":"St. George","state":"UT","zip":"84770","phone":"435-628-5514","longitude":-113.5893448,"latitude":37.1079122}],"party":"Republican","phones":["202-224-5444"],"emails":[],"urls":["https://www.lee.senate.gov/public"],"photoUrl":"","channels":[],"sources":["theunitedstates.io"],"office":{"name":"United States Senate","level":"federal"}},{"name":"Mitt Romney","address":[],"party":"Republican","phones":["202-224-5251"],"emails":[],"urls":["https://www.romney.senate.gov"],"photoUrl":"","channels":[],"sources":["theunitedstates.io"],"office":{"name":"United States Senate","level":"federal"}}]