[{"name":"James M. Inhofe","address":[{"line1":"302 N. Independence","line2":"#104","city":"Enid","state":"OK","zip":"73701","phone":"580-234-5105","longitude":-97.8803343,"latitude":36.3993287},{"line1":"215 E. Choctaw Ave.","line2":"#106","city":"McAlester","state":"OK","zip":"74501","phone":"918-426-0933","longitude":-95.7671124,"latitude":34.931573},{"line1":"3817 NW Expressway","line2":"#780","city":"Oklahoma City","state":"OK","zip":"73112","phone":"405-604-0917","longitude":-97.5879455,"latitude":35.5361791},{"line1":"1924 S. Utica Ave.","line2":"#530","city":"Tulsa","state":"OK","zip":"74104-6511","phone":"918-748-5111","longitude":-95.96760839999999,"latitude":36.13417190000001}],"party":"Republican","phones":["202-224-4721"],"emails":[],"urls":["https://www.inhofe.senate.gov"],"photoUrl":"","channels":[{"type":"Twitter","id":"InhofePress"},{"type":"Facebook","id":"jiminhofe"},{"type":"YouTube","id":"jiminhofepressoffice"}],"sources":["theunitedstates.io"],"office":{"name":"United States Senate","level":"federal"}},{"name":"James Lankford","address":[{"line1":"1015 N. Broadway Ave.","line2":"Suite 310","city":"Oklahoma City","state":"OK","zip":"73102","phone":"405-231-4941","longitude":-97.5145337,"latitude":35.4776534},{"line1":"224 South Boulder","line2":"Suite 210","city":"Tulsa","state":"OK","zip":"74103","phone":"918-581-7651","longitude":-95.992873,"latitude":36.1533467}],"party":"Republican","phones":["202-224-5754"],"emails":[],"urls":["https://www.lankford.senate.gov"],"photoUrl":"","channels":[{"type":"Twitter","id":"SenatorLankford"},{"type":"Facebook","id":"SenatorLankford"},{"type":"YouTube","id":"SenatorLankford"},{"type":"Instagram","id":"senatorlankford"}],"sources":["theunitedstates.io"],"office":{"name":"United States Senate","level":"federal"}},{"name":"Kevin Stitt","address":[],"party":"Republican","phones":["405-521-2342"],"emails":[],"urls":["http://www.gov.ok.gov/"],"photoUrl":"https://cdn.civil.services/us-governors/headshots/512x512/kevin-stitt.jpg","channels":[{"type":"Facebook","id":"StittForGovernor"},{"type":"Twitter","id":"StittforGov"}],"sources":["civil.services"],"office":{"name":"Governor","level":"state"}}]