[{"name":"Sheldon Whitehouse","address":[{"line1":"170 Westminster St.","line2":"Suite 200","city":"Providence","state":"RI","zip":"02903","phone":"401-453-5294","longitude":-71.4113021,"latitude":41.8235873}],"party":"Democratic","phones":["202-224-2921"],"emails":[],"urls":["https://www.whitehouse.senate.gov"],"photoUrl":"","channels":[{"type":"Twitter","id":"SenWhitehouse"},{"type":"Facebook","id":"SenatorWhitehouse"},{"type":"YouTube","id":"SenatorWhitehouse"},{"type":"Instagram","id":"SenWhitehouse"}],"sources":["theunitedstates.io"],"office":{"name":"United States Senate","level":"federal"}},{"name":"Jack Reed","address":[{"line1":"1000 Chapel View Blvd.","line2":"Suite 290","city":"Cranston","state":"RI","zip":"02920","phone":"401-943-3100","longitude":-71.4607281,"latitude":41.7566184},{"line1":"One Exchange Terrace","line2":"Suite 408","line3":"U.S. District Courthouse","city":"Providence","state":"RI","zip":"02903-1744","phone":"401-528-5200","longitude":-71.4109836,"latitude":41.8262057}],"party":"Democratic","phones":["202-224-4642"],"emails":[],"urls":["https://www.reed.senate.gov"],"photoUrl":"","channels":[{"type":"Twitter","id":"SenJackReed"},{"type":"Facebook","id":"SenJackReed"},{"type":"YouTube","id":"SenatorReed"}],"sources":["theunitedstates.io"],"office":{"name":"United States Senate","level":"federal"}},{"name":"Gina Raimondo","address":[],"party":"Democratic","phones":["401-222-2080"],"emails":[],"urls":["http://www.gov.ri.gov/"],"photoUrl":"https://cdn.civil.services/us-governors/headshots/512x512/gina-raimondo.jpg","channels":[{"type":"Facebook","id":"GinaMRaimondo"},{"type":"Twitter","id":"ginaraimondo"}],"sources":["civil.services"],"office":{"name":"Governor","level":"state"}}]