[{"name":"Jon Tester","address":[{"line1":"2900 4th Ave. N","line2":"Suite 201","line3":"Judge Jameson Federal Building","city":"Billings","state":"MT","zip":"59101","phone":"406-252-0550","longitude":-108.509375,"latitude":45.783552},{"line1":"1 E. Main St.","line2":"Suite 202","line3":"Avant Courier Building","city":"Bozeman","state":"MT","zip":"59715","phone":"406-586-4450","longitude":-111.0370333,"latitude":45.6795093},{"line1":"125 W. Granite","line2":"Suite 200","line3":"Silver Bow Center","city":"Butte","state":"MT","zip":"59701","phone":"406-723-3277","longitude":-112.538136,"latitude":46.01461},{"line1":"122 W. Towne St.","city":"Glendive","state":"MT","zip":"59330","phone":"406-365-2391","longitude":-104.7135,"latitude":47.106025},{"line1":"119 1st Ave. N","line2":"Suite 102","city":"Great Falls","state":"MT","zip":"59401","phone":"402-452-9585","longitude":-111.3040376,"latitude":47.5065688},{"line1":"208 N. Montana Ave.","line2":"Suite 202","line3":"Capital One Center","city":"Helena","state":"MT","zip":"59601","phone":"406-449-5401","longitude":-112.020799,"latitude":46.5865426},{"line1":"8 Third St. E","city":"Kalispell","state":"MT","zip":"59901","phone":"406-257-3360","longitude":-114.3128666,"latitude":48.1958316},{"line1":"130 W. Front St.","city":"Missoula","state":"MT","zip":"59802","phone":"406-728-3003","longitude":-113.9961779,"latitude":46.8704714}],"party":"Democratic","phones":["202-224-2644"],"emails":[],"urls":["https://www.tester.senate.gov"],"photoUrl":"","channels":[],"sources":["theunitedstates.io"],"office":{"name":"United States Senate","level":"federal"}},{"name":"Steve Daines","address":[{"line1":"222 N. 32nd St.","line2":"Suite 100","city":"Billings","state":"MT","zip":"59101","phone":"406-245-6822","longitude":-108.5125313,"latitude":45.7810512},{"line1":"13 S. Willson Ave.","line2":"Suite 8","city":"Bozeman","state":"MT","zip":"59718","phone":"406-587-3446","longitude":-111.0390251,"latitude":45.6788798},{"line1":"104 4th Street North","line2":"Suite 302","city":"Great Falls","state":"MT","zip":"59401","phone":"406-453-0148","longitude":-111.3009733,"latitude":47.5067244},{"line1":"310 N Ctr.","city":"Hardin","state":"MT","zip":"59034","phone":"406-665-4126","longitude":-107.606432,"latitude":45.731817},{"line1":"30 W. 14th St.","line2":"Suite 206","city":"Helena","state":"MT","zip":"59601","phone":"406-443-3189","longitude":-112.036443,"latitude":46.596642},{"line1":"40 2nd St East","line2":"Suite 211","line3":"KM Building","city":"Kalispell","state":"MT","zip":"59901","phone":"406-257-3765","longitude":-114.3118812,"latitude":48.19663569999999},{"line1":"218 E. Front St.","line2":"Suite 103","city":"Missoula","state":"MT","zip":"59802","phone":"406-549-8198","longitude":-113.9930208,"latitude":46.8699041},{"line1":"609 S. Central Ave.","line2":"Suite #4","line3":"Central Plaza Building","city":"Sidney","state":"MT","zip":"59270","phone":"406-482-9010","longitude":-104.1606344,"latitude":47.7106368}],"party":"Republican","phones":["202-224-2651"],"emails":[],"urls":["https://www.daines.senate.gov"],"photoUrl":"","channels":[],"sources":["theunitedstates.io"],"office":{"name":"United States Senate","level":"federal"}},{"name":"Greg Gianforte","address":[{"line1":"222 North 32nd Street","line2":"Suite 900","city":"Billings","state":"MT","zip":"59101","phone":"406-969-1736","longitude":-108.5125313,"latitude":45.7810511},{"line1":"7 West 6th Ave","line2":"Suite 3B","city":"Helena","state":"MT","zip":"59601","phone":"406-502-1435","longitude":-112.043355,"latitude":46.5888187},{"line1":"710 Central Ave","city":"Great Falls","state":"MT","zip":"59401","phone":"406-952-1280","longitude":-111.2947656,"latitude":47.5050157}],"party":"Republican","phones":["202-225-3211"],"emails":[],"urls":["https://gianforte.house.gov"],"photoUrl":"","channels":[],"sources":["theunitedstates.io"],"office":{"name":"United States House of Representatives","level":"federal"}}]