[{"name":"Lisa Murkowski","address":[{"line1":"510 L St.","line2":"Suite 600","city":"Anchorage","state":"AK","zip":"99501","phone":"907-271-3735","longitude":-149.9043364,"latitude":61.2171561},{"line1":"250 Cushman Ave.","line2":"Suite 2D","line3":"Courthouse Square","city":"Fairbanks","state":"AK","zip":"99701","phone":"907-456-0233","longitude":-147.7219443,"latitude":64.8427991},{"line1":"800 Glacier Ave.","line2":"Suite 101","city":"Juneau","state":"AK","zip":"99801","phone":"907-586-7277","longitude":-134.4205554,"latitude":58.30033239999999},{"line1":"1900 First Ave.","line2":"Suite 225","city":"Ketchikan","state":"AK","zip":"99901","phone":"907-225-6880","longitude":-131.6673863,"latitude":55.3492023},{"line1":"44539 Sterling Hwy.","line2":"Suite 203","city":"Soldotna","state":"AK","zip":"99669","phone":"907-262-4220","longitude":-151.0725394,"latitude":60.4804766},{"line1":"851 E. Westpoint Dr.","line2":"Suite 307","city":"Wasilla","state":"AK","zip":"99654","phone":"907-376-7665","longitude":-149.4286826,"latitude":61.5826697}],"party":"Republican","phones":["202-224-6665"],"emails":[],"urls":["https://www.murkowski.senate.gov"],"photoUrl":"","channels":[],"sources":["theunitedstates.io"],"office":{"name":"United States Senate","level":"federal"}},{"name":"Don Young","address":[{"line1":"471 W. 36th Avenue","line2":"Suite 201","city":"Anchorage","state":"AK","zip":"99503","phone":"907-271-5978","longitude":-149.8942221,"latitude":61.1884605},{"line1":"100 Cushman St.","line2":"Suite 307","line3":"Key Bank Building","city":"Fairbanks","state":"AK","zip":"99707","phone":"907-456-0210","longitude":-147.7220032,"latitude":64.84351649999999}],"party":"Republican","phones":["202-225-5765"],"emails":[],"urls":["https://donyoung.house.gov"],"photoUrl":"","channels":[],"sources":["theunitedstates.io"],"office":{"name":"United States House of Representatives","level":"federal"}},{"name":"Dan Sullivan","address":[{"line1":"510 L St.","line2":"Suite 750","city":"Anchorage","state":"AK","zip":"99501","phone":"907-271-5915","longitude":-149.9043364,"latitude":61.2171561},{"line1":"101 12th Ave.","line2":"Suite 328","line3":"Federal Building","city":"Fairbanks","state":"AK","zip":"99701","phone":"907-456-0261","longitude":-147.7082477,"latitude":64.8383052},{"line1":"800 Glacier Ave.","line2":"Suite 101","city":"Juneau","state":"AK","zip":"99801","phone":"907-586-7277","longitude":-134.4205554,"latitude":58.30033239999999},{"line1":"1900 First Ave.","line2":"Suite 225","city":"Ketchikan","state":"AK","zip":"99901","phone":"907-225-6880","longitude":-131.6673863,"latitude":55.3492023},{"line1":"44539 Sterling Highway","line2":"Suite 204","city":"Soldotna","state":"AK","zip":"99669","phone":"907-262-4040","longitude":-151.0747996,"latitude":60.480503},{"line1":"851 E. Westpoint Dr.","line2":"Suite 309","city":"Wasilla","state":"AK","zip":"99654","phone":"907-357-9956","longitude":-149.4286826,"latitude":61.5826697}],"party":"Republican","phones":["202-224-3004"],"emails":[],"urls":["https://www.sullivan.senate.gov"],"photoUrl":"","channels":[],"sources":["theunitedstates.io"],"office":{"name":"United States Senate","level":"federal"}},{"name":"Mike Dunleavy","address":[],"party":"Republican","phones":["907-465-3500"],"emails":[],"urls":["https://gov.alaska.gov/"],"photoUrl":"https://cdn.civil.services/us-governors/headshots/512x512/mike-dunleavy.jpg","channels":[{"type":"Facebook","id":"GovDunleavy"},{"type":"Twitter","id":"GovDunleavy/"}],"sources":["civil.services"],"office":{"name":"Governor","level":"state"}}]