[{"name":"Tammy Baldwin","address":[{"line1":"500 South Barstow St.","line2":"Suite LL2","city":"Eau Claire","state":"WI","zip":"54701","phone":"715-832-8424","longitude":-91.5330934,"latitude":44.8088044},{"line1":"1039 W. Mason","line2":"Suite 119","city":"Green Bay","state":"WI","zip":"54303","phone":"920-498-2668","longitude":-88.0413549,"latitude":44.5151063},{"line1":"205 5th Avenue South","line2":"Room 216","city":"La Crosse","state":"WI","zip":"54601","phone":"608-796-0045","longitude":-91.24976400000001,"latitude":43.8109182},{"line1":"30 W. Mifflin St.","line2":"Suite 700","city":"Madison","state":"WI","zip":"53703","phone":"608-264-5338","longitude":-89.38647139999999,"latitude":43.07506559999999},{"line1":"633 W. Wisconsin Ave.","line2":"Suite 1920","city":"Milwaukee","state":"WI","zip":"53203","phone":"414-297-4451","longitude":-87.9200848,"latitude":43.0388214},{"line1":"2100 Stewart Ave.","line2":"Suite 250 B","city":"Wausau","state":"WI","zip":"54401","phone":"715-261-2611","longitude":-89.6628755,"latitude":44.9591474}],"party":"Democratic","phones":["202-224-5653"],"emails":[],"urls":["https://www.baldwin.senate.gov"],"photoUrl":"","channels":[],"sources":["theunitedstates.io"],"office":{"name":"United States Senate","level":"federal"}},{"name":"Ron Johnson","address":[{"line1":"517 E. Wisconsin Ave.","line2":"Suite 408","city":"Milwaukee","state":"WI","zip":"53202","phone":"414-276-7282","longitude":-87.90455999999999,"latitude":43.0382241},{"line1":"219 Washington Ave.","line2":"Suite 100","city":"Oshkosh","state":"WI","zip":"54901","phone":"920-230-7250","longitude":-88.5343632,"latitude":44.0174081},{"line1":"5315 Wall St.","line2":"Suite 110","city":"Madison","state":"WI","zip":"53718","phone":"608-240-9629","longitude":-89.289711,"latitude":43.1317039}],"party":"Republican","phones":["202-224-5323"],"emails":[],"urls":["https://www.ronjohnson.senate.gov"],"photoUrl":"","channels":[],"sources":["theunitedstates.io"],"office":{"name":"United States Senate","level":"federal"}}]