[
  {
    "name": "Todd Young",
    "address": [
      {
        "line1": "251 N. Illinois St.",
        "line2": "Suite 120",
        "city": "Indianapolis",
        "state": "IN",
        "zip": "46204",
        "phone": "317-226-6700",
        "longitude": -86.15702999999999,
        "latitude": 39.770723
      },
      {
        "line1": "3602 Northgate Ct",
        "line2": "Suite 15",
        "city": "New Albany",
        "state": "IN",
        "zip": "47150",
        "phone": "812-542-4820",
        "longitude": -85.8184877,
        "latitude": 38.3332536
      },
      {
        "line1": "101 Martin Luther King Jr. Blvd",
        "line2": "Suite 110",
        "city": "Evansville",
        "state": "IN",
        "zip": "47708",
        "longitude": -87.567486,
        "latitude": 37.975188
      },
      {
        "line1": "1300 South Harrison Street",
        "line2": "Suite 3161",
        "city": "Fort Wayne",
        "state": "IN",
        "zip": "46802",
        "longitude": -85.14045349999999,
        "latitude": 41.0737372
      }
    ],
    "party": "Republican",
    "phones": [
      "202-224-5623"
    ],
    "emails": [],
    "urls": [
      "https://www.young.senate.gov"
    ],
    "photoUrl": "https://theunitedstates.io/images/congress/450x550/Y000064.jpg",
    "channels": [
      {
        "type": "Twitter",
        "id": "SenToddYoung"
      },
      {
        "type": "Facebook",
        "id": "SenatorToddYoung"
      },
      {
        "type": "YouTube",
        "id": "RepToddYoung"
      },
      {
        "type": "Instagram",
        "id": "sentoddyoung"
      }
    ],
    "sources": [
      "theunitedstates.io"
    ],
    "office": {
      "name": "United States Senate",
      "level": "federal"
    }
  },
  {
    "name": "Mike Braun",
    "address": [
      {
        "line1": "203 E Berry St",
        "line2": "702B",
        "city": "Fort Wayne",
        "state": "IN",
        "zip": "46802-2724",
        "phone": "260-427-2167",
        "longitude": -85.13801,
        "latitude": 41.0796
      },
      {
        "line1": "5400 Federal Plz",
        "line2": "Suite 3200",
        "city": "Hammond",
        "state": "IN",
        "zip": "46320-1840",
        "phone": "219-937-9650",
        "longitude": -87.51962,
        "latitude": 41.61616
      },
      {
        "line1": "115 N Pennsylvania St",
        "city": "Indianapolis",
        "state": "IN",
        "zip": "46204-2410",
        "phone": "317-822-8240",
        "longitude": -86.15612,
        "latitude": 39.76888
      },
      {
        "line1": "205 W Colfax Ave",
        "city": "South Bend",
        "state": "IN",
        "zip": "46601-1606",
        "phone": "574-288-6302",
        "longitude": -86.25266,
        "latitude": 41.67813
      }
    ],
    "party": "Republican",
    "phones": [
      "202-224-4814"
    ],
    "emails": [],
    "urls": [
      "https://www.braun.senate.gov"
    ],
    "photoUrl": "https://theunitedstates.io/images/congress/450x550/B001310.jpg",
    "channels": [
      {
        "type": "Twitter",
        "id": "SenatorBraun"
      }
    ],
    "sources": [
      "theunitedstates.io"
    ],
    "office": {
      "name": "United States Senate",
      "level": "federal"
    }
  },
  {
    "name": "Eric Holcomb",
    "address": [],
    "party": "Republican",
    "phones": [
      "317-232-4567"
    ],
    "emails": [],
    "urls": [
      "http://www.in.gov/gov/"
    ],
    "photoUrl": "https://cdn.civil.services/us-governors/headshots/512x512/eric-holcomb.jpg",
    "channels": [
      {
        "type": "Facebook",
        "id": "GovHolcomb"
      },
      {
        "type": "Twitter",
        "id": "GovHolcomb"
      }
    ],
    "sources": [
      "civil.services"
    ],
    "office": {
      "name": "Governor",
      "level": "state"
    }
  }
]