[{"name":"Jeanne Shaheen","address":[{"line1":"961 Main St.","city":"Berlin","state":"NH","zip":"03570","phone":"603-752-6300","longitude":-71.1708276,"latitude":44.4781896},{"line1":"50 Opera House Sq.","city":"Claremont","state":"NH","zip":"03743","phone":"603-542-4872","longitude":-72.3373946,"latitude":43.3727196},{"line1":"340 Central Ave.","line2":"Suite 205","city":"Dover","state":"NH","zip":"03820","phone":"603-750-3004","longitude":-70.8748699,"latitude":43.1952108},{"line1":"12 Gilbo Ave.","line2":"Suite C","city":"Keene","state":"NH","zip":"03431","phone":"603-358-6604","longitude":-72.2794587,"latitude":42.9323699},{"line1":"2 Wall St.","line2":"Suite 220","city":"Manchester","state":"NH","zip":"03101","phone":"603-647-7500","longitude":-71.46386679999999,"latitude":42.9940731},{"line1":"60 Main St.","line2":"Suite 217","city":"Nashua","state":"NH","zip":"03060","phone":"603-883-0196","longitude":-71.4659542,"latitude":42.7633363}],"party":"Democratic","phones":["202-224-2841"],"emails":[],"urls":["https://www.shaheen.senate.gov"],"photoUrl":"","channels":[],"sources":["theunitedstates.io"],"office":{"name":"United States Senate","level":"federal"}},{"name":"Margaret Wood Hassan","address":[{"line1":"168 Main Street","line2":"Lower Level","line3":"Berlin City Hall","city":"Berlin","state":"NH","zip":"03570","phone":"603-752-6190","longitude":-71.1821158,"latitude":44.469939},{"line1":"1589 Elm Street","line2":"Third Floor","city":"Manchester","state":"NH","zip":"03101","phone":"603-622-2204","longitude":-71.4662599,"latitude":43.0009812},{"line1":"142 Main Street","line2":"Suite 520","city":"Nashua","state":"NH","zip":"03060","phone":"603-880-3314","longitude":-71.4674553,"latitude":42.7617932},{"line1":"14 Manchester Square","line2":"Suite 140","city":"Portsmouth","state":"NH","zip":"03801","phone":"603-433-4445","longitude":-70.8098029,"latitude":43.0856076},{"line1":"53 Pleasant Street","line3":"James C. Cleveland Federal Building","city":"Concord","state":"NH","zip":"03301","phone":"603-622-2204","longitude":-71.5416652,"latitude":43.2024699}],"party":"Democratic","phones":["202-224-3324"],"emails":[],"urls":["https://www.hassan.senate.gov"],"photoUrl":"","channels":[],"sources":["theunitedstates.io"],"office":{"name":"United States Senate","level":"federal"}},{"name":"Christopher Sununu","address":[],"party":"Republican","phones":["603-271-2121"],"emails":[],"urls":["http://www.governor.nh.gov/"],"photoUrl":"https://cdn.civil.services/us-governors/headshots/512x512/christopher-sununu.jpg","channels":[{"type":"Facebook","id":"GovernorChrisSununu"},{"type":"Twitter","id":"GovChrisSununu"}],"sources":["civil.services"],"office":{"name":"Governor","level":"state"}}]