[{"name":"John Cornyn","address":[{"line1":"221 W. Sixth St.","line2":"Suite 1530","line3":"Chase Tower","city":"Austin","state":"TX","zip":"78701","phone":"512-469-6034","longitude":-97.7448471,"latitude":30.2681008},{"line1":"5001 Spring Valley Rd.","line2":"Suite 1125 E","city":"Dallas","state":"TX","zip":"75244","phone":"972-239-1310","longitude":-96.82359749999999,"latitude":32.9400414},{"line1":"222 E. Van Buren","line2":"Suite 404","city":"Harlingen","state":"TX","zip":"78550","phone":"956-423-0162","longitude":-97.69402009999999,"latitude":26.1914148},{"line1":"5300 Memorial Dr.","line2":"Suite 980","city":"Houston","state":"TX","zip":"77007","phone":"713-572-3337","longitude":-95.41595319999999,"latitude":29.7620629},{"line1":"1500 Broadway","line2":"Suite 1230","line3":"Wells Fargo Center","city":"Lubbock","state":"TX","zip":"79401","phone":"806-472-7533","longitude":-101.8519083,"latitude":33.5849492},{"line1":"600 Navarro","line2":"Suite 210","city":"San Antonio","state":"TX","zip":"78205","phone":"210-224-7485","longitude":-98.48957639999999,"latitude":29.4267857},{"line1":"100 E. Ferguson St.","line2":"Suite 1004","line3":"Regions Bank Building","city":"Tyler","state":"TX","zip":"75702","phone":"903-593-0902","longitude":-95.30028709999999,"latitude":32.3522862}],"party":"Republican","phones":["202-224-2934"],"emails":[],"urls":["https://www.cornyn.senate.gov"],"photoUrl":"https://theunitedstates.io/images/congress/450x550/C001056.jpg","channels":[{"type":"Twitter","id":"JohnCornyn"},{"type":"Facebook","id":"sen.johncornyn"},{"type":"YouTube","id":"senjohncornyn"}],"sources":["theunitedstates.io"],"office":{"name":"United States Senate","level":"federal"}},{"name":"Ted Cruz","address":[{"line1":"300 E 8th","line2":"Suite 961","city":"Austin","state":"TX","zip":"78701","phone":"512-916-5834","longitude":-97.7390867,"latitude":30.269401},{"line1":"3626 N. Hall St.","line2":"Suite 410","line3":"Lee Park Tower II","city":"Dallas","state":"TX","zip":"75219","phone":"214-599-8749","longitude":-96.8059281,"latitude":32.8092691},{"line1":"1919 Smith St.","line2":"Suite 9047","line3":"The Mickey Leland Federal Building","city":"Houston","state":"TX","zip":"77002","phone":"713-718-3057","longitude":-95.3650242,"latitude":29.758844},{"line1":"200 S. 10th St.","line2":"Suite 1603","city":"McAllen","state":"TX","zip":"78501","phone":"956-686-7339","longitude":-98.2313667,"latitude":26.2019273},{"line1":"9901 Ih-10w","line2":"Suite 950","city":"San Antonio","state":"TX","zip":"78230","phone":"210-340-2885","longitude":-98.5619881,"latitude":29.533858},{"line1":"305 S. Broadway","line2":"Suite 501","city":"Tyler","state":"TX","zip":"75702","phone":"903-593-5130","longitude":-95.3009807,"latitude":32.3480097}],"party":"Republican","phones":["202-224-5922"],"emails":[],"urls":["https://www.cruz.senate.gov"],"photoUrl":"https://theunitedstates.io/images/congress/450x550/C001098.jpg","channels":[{"type":"Twitter","id":"SenTedCruz"},{"type":"Facebook","id":"SenatorTedCruz"},{"type":"YouTube","id":"sentedcruz"}],"sources":["theunitedstates.io"],"office":{"name":"United States Senate","level":"federal"}},{"name":"Gregory Abbott","address":[],"party":"Republican","phones":["512-463-2000"],"emails":[],"urls":["http://gov.texas.gov/"],"photoUrl":"https://cdn.civil.services/us-governors/headshots/512x512/gregory-abbott.jpg","channels":[{"type":"Facebook","id":"TexasGovernor"},{"type":"Twitter","id":"TexGov"}],"sources":["civil.services"],"office":{"name":"Governor","level":"state"}}]