[{"name":"Bill Cassidy","address":[{"line1":"3600 Jackson St.","line2":"Suite 115A","city":"Alexandria","state":"LA","zip":"71303","phone":"318-448-7176","longitude":-92.47677350000001,"latitude":31.2852075},{"line1":"5555 Hilton Ave.","line2":"Suite 100","city":"Baton Rouge","state":"LA","zip":"70808","phone":"225-929-7711","longitude":-91.1325791,"latitude":30.423884},{"line1":"1 Lakeshore Dr.","line2":"Suite 1155","city":"Lake Charles","state":"LA","zip":"70629","phone":"337-493-5398","longitude":-93.2196294,"latitude":30.2305579},{"line1":"101 La Rue France","line2":"Suite 505","city":"Lafayette","state":"LA","zip":"70508","phone":"337-261-1400","longitude":-92.014654,"latitude":30.1948666},{"line1":"3421 N. Causeway Blvd.","line2":"Suite 204","city":"Metairie","state":"LA","zip":"70002","phone":"504-838-0130","longitude":-90.15417479999999,"latitude":30.0112259},{"line1":"1651 Louisville Ave.","line2":"Suite 123","city":"Monroe","state":"LA","zip":"70201","phone":"318-324-2111","longitude":-92.1087384,"latitude":32.5175209},{"line1":"6425 Youree Dr.","line2":"Suite 415","city":"Shreveport","state":"LA","zip":"71105","phone":"318-798-3215","longitude":-93.71986679999999,"latitude":32.448457}],"party":"Republican","phones":["202-224-5824"],"emails":[],"urls":["https://www.cassidy.senate.gov"],"photoUrl":"","channels":[],"sources":["theunitedstates.io"],"office":{"name":"United States Senate","level":"federal"}},{"name":"John Kennedy","address":[{"line1":"6501 Coliseum Blvd","line2":"Suite 700A","city":"Alexandria","state":"LA","zip":"71303","phone":"318-445-2892","longitude":-92.51565289999999,"latitude":31.2934776},{"line1":"7932 Wrenwood Blvd","line2":"Suite A & B","city":"Baton Rouge","state":"LA","zip":"70809","phone":"225-926-8033","longitude":-91.1027159,"latitude":30.4233173},{"line1":"8026 Main St","line2":"Suite 700","line3":"Government Towers","city":"Houma","state":"LA","zip":"70360","phone":"985-851-0956","longitude":-90.7180594,"latitude":29.5979835},{"line1":"101 La Rue France","line2":"Suite 503","city":"Lafayette","state":"LA","zip":"70508","phone":"337-269-5980","longitude":-92.014654,"latitude":30.1948666},{"line1":"1 Lakeshore Dr.","line2":"Suite 530","city":"Lake Charles","state":"LA","zip":"70629","phone":"337-436-6255","longitude":-91.102734,"latitude":32.5175209},{"line1":"21490 Koop Dr.","line3":"Building A","city":"Mandeville","state":"LA","zip":"70471","phone":"985-809-8153","longitude":-90.0470795,"latitude":30.4182357},{"line1":"1651 Louisville Ave.","line2":"Suite 148","city":"Monroe","state":"LA","zip":"71201","phone":"318-361-1489","longitude":-92.1087384,"latitude":32.5175209},{"line1":"500 Poydras St.","line2":"Suite 364","city":"New Orleans","state":"LA","zip":"70113","phone":"504-581-6190","longitude":-90.0711728,"latitude":29.9484696},{"line1":"401 Market St.","line2":"Suite 1050","city":"Shreveport","state":"LA","zip":"71101","phone":"318-670-5192","longitude":-93.7502759,"latitude":32.515033}],"party":"Republican","phones":["202-224-4623"],"emails":[],"urls":["https://www.kennedy.senate.gov/public"],"photoUrl":"","channels":[],"sources":["theunitedstates.io"],"office":{"name":"United States Senate","level":"federal"}}]