[
  {
    "name": "Kyrsten Sinema",
    "address": [
      {
        "line1": "2200 E Camelback Rd",
        "line2": "Suite 120",
        "city": "Phoenix",
        "state": "AZ",
        "zip": "85016-3454",
        "phone": "602-598-7327",
        "longitude": -112.03408,
        "latitude": 33.50965
      }
    ],
    "party": "Democratic",
    "phones": [
      "202-224-4521"
    ],
    "emails": [],
    "urls": [
      "https://www.sinema.senate.gov"
    ],
    "photoUrl": "https://theunitedstates.io/images/congress/450x550/S001191.jpg",
    "channels": [
      {
        "type": "Twitter",
        "id": "SenatorSinema"
      },
      {
        "type": "Facebook",
        "id": "CongresswomanSinema"
      },
      {
        "type": "YouTube",
        "id": "repsinema"
      },
      {
        "type": "Instagram",
        "id": "repsinema"
      }
    ],
    "sources": [
      "theunitedstates.io"
    ],
    "office": {
      "name": "United States Senate",
      "level": "federal"
    }
  },
  {
    "name": "Martha McSally",
    "address": [
      {
        "line1": "2201 E Camelback Rd",
        "line2": "Suite 115",
        "city": "Phoenix",
        "state": "AZ",
        "zip": "85016-3431",
        "phone": "602-952-2410",
        "longitude": -112.03395,
        "latitude": 33.50826
      },
      {
        "line1": "407 W Congress St",
        "line2": "Suite 103",
        "city": "Tucson",
        "state": "AZ",
        "zip": "85701-1310",
        "phone": "520-670-6334",
        "longitude": -110.97729,
        "latitude": 32.21986
      }
    ],
    "party": "Republican",
    "phones": [
      "202-224-2235"
    ],
    "emails": [],
    "urls": [
      "https://www.mcsally.senate.gov"
    ],
    "photoUrl": "https://theunitedstates.io/images/congress/450x550/M001197.jpg",
    "channels": [
      {
        "type": "Twitter",
        "id": "SenMcSallyAZ"
      }
    ],
    "sources": [
      "theunitedstates.io"
    ],
    "office": {
      "name": "United States Senate",
      "level": "federal"
    }
  },
  {
    "name": "Douglas Ducey",
    "address": [],
    "party": "Republican",
    "phones": [
      "602-542-4331"
    ],
    "emails": [],
    "urls": [
      "http://azgovernor.gov"
    ],
    "photoUrl": "https://cdn.civil.services/us-governors/headshots/512x512/douglas-ducey.jpg",
    "channels": [
      {
        "type": "Facebook",
        "id": "dougducey"
      },
      {
        "type": "Twitter",
        "id": "dougducey"
      }
    ],
    "sources": [
      "civil.services"
    ],
    "office": {
      "name": "Governor",
      "level": "state"
    }
  }
]