[{"name":"Mitch McConnell","address":[{"line1":"241 E. Main St.","line2":"Room 102","line3":"Federal Building","city":"Bowling Green","state":"KY","zip":"42101","phone":"270-781-1673","longitude":-86.4430273,"latitude":36.9948956},{"line1":"1885 Dixie Hwy.","line2":"Suite 345","city":"Fort Wright","state":"KY","zip":"41011","phone":"859-578-0188","longitude":-84.542929,"latitude":39.0575706},{"line1":"771 Corporate Dr.","line2":"Suite 108","city":"Lexington","state":"KY","zip":"40503","phone":"859-224-8286","longitude":-84.5524557,"latitude":38.0134107},{"line1":"300 S. Main St.","line2":"Suite 310","city":"London","state":"KY","zip":"40741","phone":"606-864-2026","longitude":-84.0809548,"latitude":37.1258183},{"line1":"601 W. Broadway","line2":"Room 630","city":"Louisville","state":"KY","zip":"40202","phone":"502-582-6304","longitude":-85.7624677,"latitude":38.2469833},{"line1":"100 Fountain Ave.","line2":"Suite 300","city":"Paducah","state":"KY","zip":"42001","phone":"270-442-4554","longitude":-88.6172508,"latitude":37.07925609999999}],"party":"Republican","phones":["202-224-2541"],"emails":[],"urls":["https://www.mcconnell.senate.gov"],"photoUrl":"","channels":[{"type":"Twitter","id":"McConnellPress"},{"type":"Facebook","id":"mitchmcconnell"},{"type":"Instagram","id":"mcconnellpress"}],"sources":["theunitedstates.io"],"office":{"name":"United States Senate","level":"federal"}},{"name":"Rand Paul","address":[{"line1":"1029 State St.","city":"Bowling Green","state":"KY","zip":"42101","phone":"270-782-8303","longitude":-86.44277609999999,"latitude":36.991545}],"party":"Republican","phones":["202-224-4343"],"emails":[],"urls":["https://www.paul.senate.gov"],"photoUrl":"","channels":[{"type":"Twitter","id":"RandPaul"},{"type":"Facebook","id":"SenatorRandPaul"},{"type":"YouTube","id":"SenatorRandPaul"},{"type":"Instagram","id":"senatorrandpaul"}],"sources":["theunitedstates.io"],"office":{"name":"United States Senate","level":"federal"}},{"name":"Matthew Bevin","address":[],"party":"Republican","phones":["502-564-2611"],"emails":[],"urls":["http://governor.ky.gov"],"photoUrl":"https://cdn.civil.services/us-governors/headshots/512x512/matthew-bevin.jpg","channels":[{"type":"Facebook","id":"GovMattBevin"},{"type":"Twitter","id":"GovMattBevin"}],"sources":["civil.services"],"office":{"name":"Governor","level":"state"}}]