[
  {
    "name": "Debbie Stabenow",
    "address": [
      {
        "line1": "719 Griswold St.",
        "line2": "Suite 700",
        "city": "Detroit",
        "state": "MI",
        "zip": "48226",
        "phone": "313-961-4330",
        "longitude": -83.048152,
        "latitude": 42.3307555
      },
      {
        "line1": "221 W. Lake Lansing Rd.",
        "line2": "Suite 100",
        "city": "East Lansing",
        "state": "MI",
        "zip": "48823",
        "phone": "517-203-1760",
        "longitude": -84.48539199999999,
        "latitude": 42.757677
      },
      {
        "line1": "432 N. Saginaw St.",
        "line2": "Suite 301",
        "city": "Flint",
        "state": "MI",
        "zip": "48502",
        "phone": "810-720-4172",
        "longitude": -83.69306720000002,
        "latitude": 43.0201574
      },
      {
        "line1": "3280 E. Beltline Ct. NE",
        "line2": "Suite 400",
        "city": "Grand Rapids",
        "state": "MI",
        "zip": "49525",
        "phone": "616-975-0052",
        "longitude": -85.588081,
        "latitude": 43.037652
      },
      {
        "line1": "1901 W. Ridge",
        "line2": "Suite 7",
        "city": "Marquette",
        "state": "MI",
        "zip": "49855",
        "phone": "906-228-8756",
        "longitude": -87.4269822,
        "latitude": 46.5484343
      },
      {
        "line1": "3335 S. Airport Road West",
        "line2": "Suite 6B",
        "city": "Traverse City",
        "state": "MI",
        "zip": "49684",
        "phone": "231-929-1031",
        "longitude": -85.642375,
        "latitude": 44.7222478
      }
    ],
    "party": "Democratic",
    "phones": [
      "202-224-4822"
    ],
    "emails": [],
    "urls": [
      "https://www.stabenow.senate.gov"
    ],
    "photoUrl": "https://theunitedstates.io/images/congress/450x550/S000770.jpg",
    "channels": [
      {
        "type": "Twitter",
        "id": "SenStabenow"
      },
      {
        "type": "Facebook",
        "id": "SenatorStabenow"
      },
      {
        "type": "YouTube",
        "id": "senatorstabenow"
      }
    ],
    "sources": [
      "theunitedstates.io"
    ],
    "office": {
      "name": "United States Senate",
      "level": "federal"
    }
  },
  {
    "name": "Gary C. Peters",
    "address": [
      {
        "line1": "477 Michigan Ave.",
        "line2": "Suite 1837",
        "line3": "Patrick V. McNamara Federal Building",
        "city": "Detroit",
        "state": "MI",
        "zip": "48226",
        "phone": "313-226-6020",
        "longitude": -83.0532168,
        "latitude": 42.3311478
      },
      {
        "line1": "110 Michigan St. NW",
        "line2": "Suite 720",
        "line3": "Gerald R. Ford Federal Building",
        "city": "Grand Rapids",
        "state": "MI",
        "zip": "49503",
        "phone": "616-233-9150",
        "longitude": -85.67097419999999,
        "latitude": 42.96997460000001
      },
      {
        "line1": "124 W. Allegan St.",
        "line2": "Suite 1400",
        "city": "Lansing",
        "state": "MI",
        "zip": "48933",
        "phone": "517-377-1508",
        "longitude": -84.553479,
        "latitude": 42.73289279999999
      },
      {
        "line1": "857 W. Washington St.",
        "line2": "Suite 308",
        "city": "Marquette",
        "state": "MI",
        "zip": "49855",
        "phone": "906-226-4554",
        "longitude": -87.413111,
        "latitude": 46.545668
      },
      {
        "line1": "407 6th St.",
        "line2": "Suite C",
        "city": "Rochester",
        "state": "MI",
        "zip": "48307",
        "phone": "248-608-8040",
        "longitude": -83.137692,
        "latitude": 42.682816
      },
      {
        "line1": "515 N. Washington Ave.",
        "line2": "Suite 401",
        "city": "Saginaw",
        "state": "MI",
        "zip": "48607",
        "phone": "989-754-0112",
        "longitude": -83.93773879999999,
        "latitude": 43.438206
      },
      {
        "line1": "818 Red Dr.",
        "line2": "Suite 40",
        "city": "Traverse City",
        "state": "MI",
        "zip": "49684",
        "phone": "231-947-7773",
        "longitude": -85.64489909999999,
        "latitude": 44.7556947
      }
    ],
    "party": "Democratic",
    "phones": [
      "202-224-6221"
    ],
    "emails": [],
    "urls": [
      "https://www.peters.senate.gov"
    ],
    "photoUrl": "https://theunitedstates.io/images/congress/450x550/P000595.jpg",
    "channels": [
      {
        "type": "Twitter",
        "id": "SenGaryPeters"
      },
      {
        "type": "Facebook",
        "id": "SenGaryPeters"
      },
      {
        "type": "YouTube",
        "id": "RepGaryPeters"
      },
      {
        "type": "Instagram",
        "id": "sengarypeters"
      }
    ],
    "sources": [
      "theunitedstates.io"
    ],
    "office": {
      "name": "United States Senate",
      "level": "federal"
    }
  },
  {
    "name": "Gretchen Whitmer",
    "address": [],
    "party": "Democratic",
    "phones": [
      "517-373-3400"
    ],
    "emails": [],
    "urls": [
      "http://www.michigan.gov/gov"
    ],
    "photoUrl": "https://cdn.civil.services/us-governors/headshots/512x512/gretchen-whitmer.jpg",
    "channels": [
      {
        "type": "Facebook",
        "id": "GretchenWhitmer"
      },
      {
        "type": "Twitter",
        "id": "gretchenwhitmer"
      }
    ],
    "sources": [
      "civil.services"
    ],
    "office": {
      "name": "Governor",
      "level": "state"
    }
  }
]