[{"name":"Michael F. Bennet","address":[{"line1":"609 Main St.","line2":"Suite 110","city":"Alamosa","state":"CO","zip":"81101","phone":"719-587-0096","longitude":-105.8659434,"latitude":37.4685012},{"line1":"409 N. Tejon St.","line2":"Suite 107","city":"Colorado Springs","state":"CO","zip":"80903","phone":"719-328-1100","longitude":-104.8228748,"latitude":38.8400247},{"line1":"1244 Speer Blvd.","line3":"Cesar E. Chavez Memorial Building","city":"Denver","state":"CO","zip":"80204","phone":"303-455-7600","longitude":-104.994978,"latitude":39.7364704},{"line1":"835 E. 2nd Ave.","line2":"Suite 206","city":"Durango","state":"CO","zip":"81301","phone":"970-259-1710","longitude":-107.8799634,"latitude":37.2725939},{"line1":"1200 S. College Ave.","line2":"Suite 211","city":"Fort Collins","state":"CO","zip":"80524","phone":"970-224-2200","longitude":-105.0766516,"latitude":40.5716714},{"line1":"225 N. 5th St.","line2":"Suite 511","city":"Grand Junction","state":"CO","zip":"81501","phone":"970-241-6631","longitude":-108.5648398,"latitude":39.0688046},{"line1":"129 W. B St.","city":"Pueblo","state":"CO","zip":"81003","phone":"719-542-7550","longitude":-104.508253,"latitude":38.2795281}],"party":"Democratic","phones":["202-224-5852"],"emails":[],"urls":["https://www.bennet.senate.gov/public"],"photoUrl":"https://theunitedstates.io/images/congress/450x550/B001267.jpg","channels":[{"type":"Twitter","id":"SenatorBennet"},{"type":"Facebook","id":"senbennetco"},{"type":"YouTube","id":"SenatorBennet"},{"type":"Instagram","id":"SenBennetCO"}],"sources":["theunitedstates.io"],"office":{"name":"United States Senate","level":"federal"}},{"name":"Cory Gardner","address":[{"line1":"102 S. Tejon St.","line2":"Suite 930","city":"Colorado Springs","state":"CO","zip":"80903","phone":"719-632-6706","longitude":-104.8240571,"latitude":38.83199949999999},{"line1":"721 19th St.","line2":"Suite 150","city":"Denver","state":"CO","zip":"80202","phone":"303-391-5777","longitude":-104.9908558,"latitude":39.7485943},{"line1":"329 S. Camino Del Rio","line2":"Suite I","city":"Durango","state":"CO","zip":"81303","phone":"970-259-1231","longitude":-107.880109,"latitude":37.2508296},{"line1":"2001 S. Shields St.","line3":"Building H, Suite 104","city":"Fort Collins","state":"CO","zip":"80526","phone":"970-484-3502","longitude":-105.0969106,"latitude":40.5607326},{"line1":"400 Rood Ave.","line2":"Suite 220","line3":"Federal Bldg.","city":"Grand Junction","state":"CO","zip":"81501","phone":"970-245-9553","longitude":-108.5657085,"latitude":39.06856490000001},{"line1":"801 8th St.","line2":"Suite 140A","city":"Greeley","state":"CO","zip":"80631","phone":"970-352-5546","longitude":-104.6910459,"latitude":40.425174},{"line1":"503 N. Main St.","line2":"Suite 426","city":"Pueblo","state":"CO","zip":"81003","phone":"719-543-1324","longitude":-104.60937,"latitude":38.27203069999999},{"line1":"529 N. Albany St.","line2":"Suite 1220","city":"Yuma","state":"CO","zip":"80759","phone":"970-848-3095","longitude":-102.7221695,"latitude":40.1304123}],"party":"Republican","phones":["202-224-5941"],"emails":[],"urls":["https://www.gardner.senate.gov"],"photoUrl":"https://theunitedstates.io/images/congress/450x550/G000562.jpg","channels":[{"type":"Twitter","id":"SenCoryGardner"},{"type":"Facebook","id":"SenCoryGardner"},{"type":"Instagram","id":"sencorygardner"}],"sources":["theunitedstates.io"],"office":{"name":"United States Senate","level":"federal"}},{"name":"Jared Polis","address":[],"party":"Democratic","phones":["303-866-2471"],"emails":[],"urls":["http://www.colorado.gov/governor/"],"photoUrl":"https://cdn.civil.services/us-governors/headshots/512x512/jared-polis.jpg","channels":[{"type":"Facebook","id":"PolisForColorado"},{"type":"Twitter","id":"jaredpolis"}],"sources":["civil.services"],"office":{"name":"Governor","level":"state"}}]