[{"name":"Maria Cantwell","address":[{"line1":"2930 Wetmore Ave.","line2":"Suite 9B","city":"Everett","state":"WA","zip":"98201","phone":"425-303-0114","longitude":-122.2076204,"latitude":47.9781562},{"line1":"825 Jadwin Ave.","line2":"Suite 206","city":"Richland","state":"WA","zip":"99352","phone":"509-946-8106","longitude":-119.2760977,"latitude":46.2775762},{"line1":"915 Second Ave.","line2":"Suite 3206","city":"Seattle","state":"WA","zip":"98174","phone":"206-220-6400","longitude":-122.3354608,"latitude":47.6045895},{"line1":"920 W. Riverside Ave.","line2":"Suite 697","city":"Spokane","state":"WA","zip":"99201","phone":"509-353-2507","longitude":-117.4260094,"latitude":47.6585992},{"line1":"950 Pacific Ave.","line2":"Suite 615","city":"Tacoma","state":"WA","zip":"98402","phone":"253-572-2281","longitude":-122.4390697,"latitude":47.2535757},{"line1":"1313 Officers Row","city":"Vancouver","state":"WA","zip":"98661","phone":"360-696-7838","longitude":-122.6641029,"latitude":45.628864}],"party":"Democratic","phones":["202-224-3441"],"emails":[],"urls":["https://www.cantwell.senate.gov"],"photoUrl":"","channels":[],"sources":["theunitedstates.io"],"office":{"name":"United States Senate","level":"federal"}},{"name":"Patty Murray","address":[{"line1":"2930 Wetmore Ave.","line2":"Suite 9D","city":"Everett","state":"WA","zip":"98201","phone":"425-259-6515","longitude":-122.2076204,"latitude":47.9781562},{"line1":"915 2nd Ave.","line2":"#2988","line3":"Jackson Federal Building","city":"Seattle","state":"WA","zip":"98174","phone":"206-553-5545","longitude":-122.3354608,"latitude":47.6045895},{"line1":"10 N. Post St.","line2":"Suite 600","city":"Spokane","state":"WA","zip":"99201","phone":"509-624-9515","longitude":-117.4232771,"latitude":47.65759629999999},{"line1":"950 Pacific Ave.","line2":"Suite 650","city":"Tacoma","state":"WA","zip":"98402","phone":"253-572-3636","longitude":-122.4390697,"latitude":47.2535757},{"line1":"1323 Officer's Row","line3":"The Marshall House","city":"Vancouver","state":"WA","zip":"98661","phone":"360-696-7797","longitude":-122.657351,"latitude":45.6276649},{"line1":"402 E. Yakima Ave.","line2":"Suite 420","city":"Yakima","state":"WA","zip":"98901","phone":"509-453-7462","longitude":-120.5008956,"latitude":46.6030785}],"party":"Democratic","phones":["202-224-2621"],"emails":[],"urls":["https://www.murray.senate.gov/public"],"photoUrl":"","channels":[],"sources":["theunitedstates.io"],"office":{"name":"United States Senate","level":"federal"}}]