[{"name":"Thomas R. Carper","address":[{"line1":"500 W. Loockerman St.","line2":"Suite 470","city":"Dover","state":"DE","zip":"19904","phone":"302-674-3308","longitude":-75.5311574,"latitude":39.15666239999999},{"line1":"12 The Circle","city":"Georgetown","state":"DE","zip":"19947","phone":"302-856-7690","longitude":-75.3852914,"latitude":38.6902745},{"line1":"301 N. Walnut St.","line2":"Suite 102L-1","city":"Wilmington","state":"DE","zip":"19801-3974","phone":"302-573-6291","longitude":-75.5492666,"latitude":39.739183}],"party":"Democratic","phones":["202-224-2441"],"emails":[],"urls":["https://www.carper.senate.gov/public"],"photoUrl":"","channels":[],"sources":["theunitedstates.io"],"office":{"name":"United States Senate","level":"federal"}},{"name":"Christopher A. Coons","address":[{"line1":"500 W. Loockerman St.","line2":"Suite 450","city":"Dover","state":"DE","zip":"19904","phone":"302-736-5601","longitude":-75.5311574,"latitude":39.15666239999999},{"line1":"1105 N. Market St.","line2":"Suite 100","city":"Wilmington","state":"DE","zip":"19801-1233","phone":"302-573-6345","longitude":-75.5471367,"latitude":39.7473432}],"party":"Democratic","phones":["202-224-5042"],"emails":[],"urls":["https://www.coons.senate.gov"],"photoUrl":"","channels":[],"sources":["theunitedstates.io"],"office":{"name":"United States Senate","level":"federal"}},{"name":"Lisa Blunt Rochester","address":[{"line1":"1105 N. Market St.","line2":"Suite 400","city":"Wilmington","state":"DE","zip":"19801","phone":"302-830-2330","longitude":-75.5471367,"latitude":39.7473432},{"line1":"28 The Circle","line2":"Suite 2","city":"Georgetown","state":"DE","zip":"19947","phone":"302-858-4773","longitude":-75.3887458,"latitude":38.6903978}],"party":"Democratic","phones":["202-225-4165"],"emails":[],"urls":["https://bluntrochester.house.gov"],"photoUrl":"","channels":[],"sources":["theunitedstates.io"],"office":{"name":"United States House of Representatives","level":"federal"}},{"name":"John Carney","address":[],"party":"Democratic","phones":["302-577-4101"],"emails":[],"urls":["http://governor.delaware.gov"],"photoUrl":"https://cdn.civil.services/us-governors/headshots/512x512/john-carney.jpg","channels":[{"type":"Facebook","id":"JohnCarneyDE"},{"type":"Twitter","id":"johncarneyde"}],"sources":["civil.services"],"office":{"name":"Governor","level":"state"}}]