[{"name":"John Hoeven","address":[{"line1":"220 E. Rosser Ave.","line2":"Room 312","line3":"U.S. Federal Building","city":"Bismarck","state":"ND","zip":"58501","phone":"701-250-4618","longitude":-100.7882597,"latitude":46.80901129999999},{"line1":"123 Broadway North","line2":"Suite 201","city":"Fargo","state":"ND","zip":"58102","phone":"701-239-5389","longitude":-96.7894805,"latitude":46.8778235},{"line1":"102 N. Fourth St.","line2":"Room 108","line3":"Federal Building","city":"Grand Forks","state":"ND","zip":"58203","phone":"701-746-8972","longitude":-97.03273929999999,"latitude":47.9255358},{"line1":"100 1st St. SW","line2":"Suite 107","city":"Minot","state":"ND","zip":"58701","phone":"701-838-1361","longitude":-101.2950057,"latitude":48.2351551}],"party":"Republican","phones":["202-224-2551"],"emails":[],"urls":["https://www.hoeven.senate.gov"],"photoUrl":"","channels":[],"sources":["theunitedstates.io"],"office":{"name":"United States Senate","level":"federal"}},{"name":"Kevin Cramer","address":[{"line1":"220 E. Rosser Ave.","line3":"328 Federal Building","city":"Bismarck","state":"ND","zip":"58501","phone":"701-224-0355","longitude":-100.7882597,"latitude":46.80901129999999},{"line1":"3217 Fiechtner Dr.","line2":"Suite D","city":"Fargo","state":"ND","zip":"58103","phone":"701-356-2216","longitude":-96.83148949999999,"latitude":46.8653775},{"line1":"4200 James Ray Dr.","line2":"Office 600","city":"Grand Forks","state":"ND","zip":"58202","phone":"701-738-4880","longitude":-97.090537,"latitude":47.921087},{"line1":"315 Main St.","line2":"Suite 203","city":"Minot","state":"ND","zip":"58701","phone":"701-839-0255","longitude":-101.2926299,"latitude":48.23281009999999}],"party":"Republican","phones":["202-224-2043"],"emails":[],"urls":["https://www.senate.gov/senators/116thCongress/CramerKevin.htm"],"photoUrl":"","channels":[],"sources":["theunitedstates.io"],"office":{"name":"United States Senate","level":"federal"}},{"name":"Kelly Armstrong","address":[],"party":"Republican","phones":["202-225-2611"],"emails":[],"urls":["https://armstrong.house.gov/"],"photoUrl":"","channels":[],"sources":["theunitedstates.io"],"office":{"name":"United States House of Representatives","level":"federal"}}]