[
  {
    "name": "Amy Klobuchar",
    "address": [
      {
        "line1": "1200 Washington Avenue South",
        "line2": "Room 250",
        "city": "Minneapolis",
        "state": "MN",
        "zip": "55415",
        "phone": "612-727-5220",
        "longitude": -93.2505863,
        "latitude": 44.9751443
      },
      {
        "line1": "121 4th Street South",
        "city": "Moorhead",
        "state": "MN",
        "zip": "56560",
        "phone": "218-287-2219",
        "longitude": -96.774188,
        "latitude": 46.873119
      },
      {
        "line1": "1130 1/2 7th Street NW",
        "line2": "Room 212",
        "city": "Rochester",
        "state": "MN",
        "zip": "55901",
        "phone": "507-288-5321",
        "longitude": -92.479679,
        "latitude": 44.0314822
      },
      {
        "line1": "820 9th Street North",
        "line2": "Room 105",
        "line3": "Olcott Plaza",
        "city": "Virginia",
        "state": "MN",
        "zip": "55792",
        "phone": "218-741-9690",
        "longitude": -92.5465059,
        "latitude": 47.5302888
      }
    ],
    "party": "Democratic",
    "phones": [
      "202-224-3244"
    ],
    "emails": [],
    "urls": [
      "https://www.klobuchar.senate.gov"
    ],
    "photoUrl": "https://theunitedstates.io/images/congress/450x550/K000367.jpg",
    "channels": [
      {
        "type": "Twitter",
        "id": "SenAmyKlobuchar"
      },
      {
        "type": "YouTube",
        "id": "senatorklobuchar"
      }
    ],
    "sources": [
      "theunitedstates.io"
    ],
    "office": {
      "name": "United States Senate",
      "level": "federal"
    }
  },
  {
    "name": "Tina Smith",
    "address": [
      {
        "line1": "819 Center Avenue",
        "line2": "2A",
        "city": "Moorhead",
        "state": "MN",
        "zip": "56560",
        "phone": "218-284-8721",
        "longitude": -96.7677958,
        "latitude": 46.8750559
      },
      {
        "line1": "515 W 1st Street",
        "line2": "104",
        "city": "Duluth",
        "state": "MN",
        "zip": "55802",
        "phone": "218-722-2390",
        "longitude": -92.1069752,
        "latitude": 46.7825302
      },
      {
        "line1": "60 Plato Blvd. East",
        "line2": "220",
        "city": "Saint Paul",
        "state": "MN",
        "zip": "55107",
        "phone": "651-221-1016",
        "longitude": -93.0843115,
        "latitude": 44.93741180000001
      },
      {
        "line1": "1202-1/2 7th Street NW",
        "line2": "213",
        "city": "Rochester",
        "state": "MN",
        "zip": "55901",
        "phone": "507-288-2003",
        "longitude": -92.47637809999999,
        "latitude": 44.0524692
      }
    ],
    "party": "Democratic",
    "phones": [
      "202-224-5641"
    ],
    "emails": [],
    "urls": [
      "https://www.smith.senate.gov"
    ],
    "photoUrl": "https://theunitedstates.io/images/congress/450x550/S001203.jpg",
    "channels": [
      {
        "type": "Twitter",
        "id": "SenTinaSmith"
      },
      {
        "type": "Facebook",
        "id": "USSenTinaSmith"
      }
    ],
    "sources": [
      "theunitedstates.io"
    ],
    "office": {
      "name": "United States Senate",
      "level": "federal"
    }
  },
  {
    "name": "Tim Walz",
    "address": [],
    "party": "Democratic",
    "phones": [
      "651-201-3400"
    ],
    "emails": [],
    "urls": [
      "https://mn.gov/governor/"
    ],
    "photoUrl": "https://cdn.civil.services/us-governors/headshots/512x512/tim-walz.jpg",
    "channels": [
      {
        "type": "Facebook",
        "id": "GovTimWalz"
      },
      {
        "type": "Twitter",
        "id": "GovTimWalz"
      }
    ],
    "sources": [
      "civil.services"
    ],
    "office": {
      "name": "Governor",
      "level": "state"
    }
  }
]