[{"name":"Chuck Grassley","address":[{"line1":"111 7th Ave. SE","line2":"Suite 6800","city":"Cedar Rapids","state":"IA","zip":"52401","phone":"319-363-6832","longitude":-91.6645212,"latitude":41.9731139},{"line1":"8 S. 6th St.","line2":"307","line3":"Federal Building","city":"Council Bluffs","state":"IA","zip":"51501","phone":"712-322-7103","longitude":-95.8525576,"latitude":41.2608863},{"line1":"201 W. 2nd St.","line2":"Suite 720","city":"Davenport","state":"IA","zip":"52801","phone":"563-322-4331","longitude":-90.5758645,"latitude":41.5213296},{"line1":"210 Walnut St.","line2":"721","line3":"Federal Building","city":"Des Moines","state":"IA","zip":"50309","phone":"515-288-1145","longitude":-93.62015319999999,"latitude":41.5864152},{"line1":"320 6th St.","line2":"120","line3":"Federal Building","city":"Sioux City","state":"IA","zip":"51101","phone":"712-233-1860","longitude":-96.40758369999999,"latitude":42.4963261},{"line1":"531 Commercial St.","line2":"210","line3":"Waterloo Building","city":"Waterloo","state":"IA","zip":"50701","phone":"319-232-6657","longitude":-92.339384,"latitude":42.4953784}],"party":"Republican","phones":["202-224-3744"],"emails":[],"urls":["https://www.grassley.senate.gov"],"photoUrl":"","channels":[],"sources":["theunitedstates.io"],"office":{"name":"United States Senate","level":"federal"}},{"name":"Joni Ernst","address":[{"line1":"111 Seventh Ave. SE","line2":"Suite 480","city":"Cedar Rapids","state":"IA","zip":"52401","phone":"319-365-4504","longitude":-91.6645212,"latitude":41.9731139},{"line1":"8 S. Sixth St.","line3":"221 Federal Building","city":"Council Bluffs","state":"IA","zip":"51501","phone":"712-352-1167","longitude":-95.8525576,"latitude":41.2608863},{"line1":"201 W. Second St.","line2":"Suite 806","city":"Davenport","state":"IA","zip":"52801","phone":"563-322-0677","longitude":-90.5758645,"latitude":41.5213296},{"line1":"210 Walnut St.","line3":"733 Federal Building","city":"Des Moines","state":"IA","zip":"50309","phone":"515-284-4574","longitude":-93.62015319999999,"latitude":41.5864152},{"line1":"320 Sixth St.","line3":"194 Federal Building","city":"Sioux City","state":"IA","zip":"51101","phone":"712-252-1550","longitude":-96.40758369999999,"latitude":42.4963261}],"party":"Republican","phones":["202-224-3254"],"emails":[],"urls":["https://www.ernst.senate.gov/public"],"photoUrl":"","channels":[],"sources":["theunitedstates.io"],"office":{"name":"United States Senate","level":"federal"}}]