[
  {
    "name": "Bernard Sanders",
    "address": [
      {
        "line1": "1 Church St.",
        "line2": "3rd Floor",
        "city": "Burlington",
        "state": "VT",
        "zip": "05401",
        "phone": "802-862-0697",
        "longitude": -73.21307019999999,
        "latitude": 44.4802081
      },
      {
        "line1": "357 Western Ave.",
        "line2": "Suite 1B",
        "city": "St. Johnsbury",
        "state": "VT",
        "zip": "05819",
        "phone": "800-339-9834",
        "longitude": -72.02646469999999,
        "latitude": 44.4173546
      }
    ],
    "party": "Independent",
    "phones": [
      "202-224-5141"
    ],
    "emails": [],
    "urls": [
      "https://www.sanders.senate.gov"
    ],
    "photoUrl": "https://theunitedstates.io/images/congress/450x550/S000033.jpg",
    "channels": [
      {
        "type": "Twitter",
        "id": "SenSanders"
      },
      {
        "type": "Facebook",
        "id": "senatorsanders"
      },
      {
        "type": "YouTube",
        "id": "senatorsanders"
      }
    ],
    "sources": [
      "theunitedstates.io"
    ],
    "office": {
      "name": "United States Senate",
      "level": "federal"
    }
  },
  {
    "name": "Patrick J. Leahy",
    "address": [
      {
        "line1": "199 Main St",
        "line2": "4th Floor",
        "city": "Burlington",
        "state": "VT",
        "zip": "05401",
        "phone": "802-863-2525",
        "longitude": -73.21128259999999,
        "latitude": 44.47553140000001
      },
      {
        "line1": "87 State St.",
        "line2": "Room 338",
        "city": "Montpelier",
        "state": "VT",
        "zip": "05602",
        "phone": "802-229-0569",
        "longitude": -72.5775843,
        "latitude": 44.260997
      }
    ],
    "party": "Democratic",
    "phones": [
      "202-224-4242"
    ],
    "emails": [],
    "urls": [
      "https://www.leahy.senate.gov"
    ],
    "photoUrl": "https://theunitedstates.io/images/congress/450x550/L000174.jpg",
    "channels": [
      {
        "type": "Twitter",
        "id": "SenatorLeahy"
      },
      {
        "type": "Facebook",
        "id": "SenatorPatrickLeahy"
      },
      {
        "type": "YouTube",
        "id": "SenatorPatrickLeahy"
      },
      {
        "type": "Instagram",
        "id": "senatorleahy"
      }
    ],
    "sources": [
      "theunitedstates.io"
    ],
    "office": {
      "name": "United States Senate",
      "level": "federal"
    }
  },
  {
    "name": "Peter Welch",
    "address": [
      {
        "line1": "128 Lakeside Ave.",
        "line2": "Suite 235",
        "city": "Burlington",
        "state": "VT",
        "zip": "05401",
        "phone": "802-652-2450",
        "longitude": -73.21776830000002,
        "latitude": 44.4626812
      }
    ],
    "party": "Democratic",
    "phones": [
      "202-225-4115"
    ],
    "emails": [],
    "urls": [
      "https://welch.house.gov"
    ],
    "photoUrl": "https://theunitedstates.io/images/congress/450x550/W000800.jpg",
    "channels": [
      {
        "type": "Twitter",
        "id": "PeterWelch"
      },
      {
        "type": "Facebook",
        "id": "PeterWelch"
      },
      {
        "type": "YouTube",
        "id": "reppeterwelch"
      },
      {
        "type": "Instagram",
        "id": "reppeterwelch"
      }
    ],
    "sources": [
      "theunitedstates.io"
    ],
    "office": {
      "name": "United States House of Representatives",
      "level": "federal"
    }
  },
  {
    "name": "Philip Scott",
    "address": [],
    "party": "Republican",
    "phones": [
      "802-828-3333"
    ],
    "emails": [],
    "urls": [
      "http://governor.vermont.gov/"
    ],
    "photoUrl": "https://cdn.civil.services/us-governors/headshots/512x512/philip-scott.jpg",
    "channels": [
      {
        "type": "Facebook",
        "id": "GovPhilScott"
      },
      {
        "type": "Twitter",
        "id": "GovPhilScott"
      }
    ],
    "sources": [
      "civil.services"
    ],
    "office": {
      "name": "Governor",
      "level": "state"
    }
  }
]