[{"name":"Lamar Alexander","address":[{"line1":"2525 Highway 75","line2":"Suite 101","line3":"Tri-Cities Regional Airport","city":"Blountville","state":"TN","zip":"37617","phone":"423-325-6240","longitude":-82.4092344,"latitude":36.473223},{"line1":"900 Georgia Ave.","line2":"#260","line3":"Joel E. Soloman Federal Building","city":"Chattanooga","state":"TN","zip":"37402","phone":"423-752-5337","longitude":-85.3082146,"latitude":35.0450875},{"line1":"111 Murray Guard Dr.","line2":"Suite D","city":"Jackson","state":"TN","zip":"38305","phone":"731-664-0289","longitude":-88.852707,"latitude":35.693264},{"line1":"800 Market St.","line2":"#112","line3":"Howard H. Baker, Jr., U.S. Courthouse","city":"Knoxville","state":"TN","zip":"37902","phone":"865-545-4253","longitude":-83.91775799999999,"latitude":35.96172},{"line1":"167 N. Main St.","line2":"#1068","line3":"Clifford Davis-Odell Horton Federal Building","city":"Memphis","state":"TN","zip":"38103","phone":"901-544-4224","longitude":-90.0517538,"latitude":35.1497482},{"line1":"3322 W. End Ave.","line2":"#120","city":"Nashville","state":"TN","zip":"37203","phone":"615-736-5129","longitude":-86.8199101,"latitude":36.1400262}],"party":"Republican","phones":["202-224-4944"],"emails":[],"urls":["https://www.alexander.senate.gov/public"],"photoUrl":"","channels":[{"type":"Twitter","id":"SenAlexander"},{"type":"Facebook","id":"senatorlamaralexander"},{"type":"YouTube","id":"lamaralexander"},{"type":"Instagram","id":"senlamaralexander"}],"sources":["theunitedstates.io"],"office":{"name":"United States Senate","level":"federal"}},{"name":"Marsha Blackburn","address":[{"line1":"128 N. 2nd St.","line2":"Suite 104","city":"Clarksville","state":"TN","zip":"37040","phone":"931-503-0391","longitude":-87.35942089999999,"latitude":36.5285913},{"line1":"305 Public Sq.","line2":"Suite 212","city":"Franklin","state":"TN","zip":"37064","phone":"615-591-5161","longitude":-86.86924189999999,"latitude":35.9250525}],"party":"Republican","phones":["202-224-3344"],"emails":[],"urls":["https://www.blackburn.senate.gov"],"photoUrl":"","channels":[{"type":"Twitter","id":"MarshaBlackburn"},{"type":"Facebook","id":"marshablackburn"},{"type":"YouTube","id":"RepMarshaBlackburn"},{"type":"Instagram","id":"marshablackburn"}],"sources":["theunitedstates.io"],"office":{"name":"United States Senate","level":"federal"}},{"name":"Bill Lee","address":[],"party":"Republican","phones":["615-741-2001"],"emails":[],"urls":["https://www.tn.gov/governor"],"photoUrl":"https://cdn.civil.services/us-governors/headshots/512x512/bill-lee.jpg","channels":[{"type":"Facebook","id":"BillLeeTN"},{"type":"Twitter","id":"billleetn"}],"sources":["civil.services"],"office":{"name":"Governor","level":"state"}}]