[
  {
    "name": "Joe Manchin, III",
    "address": [
      {
        "line1": "900 Pennsylvania Ave.",
        "line2": "Suite 629",
        "city": "Charleston",
        "state": "WV",
        "zip": "25302",
        "phone": "304-342-5855",
        "longitude": -81.6350089,
        "latitude": 38.3590792
      },
      {
        "line1": "230 Adams St.",
        "city": "Fairmont",
        "state": "WV",
        "zip": "26554",
        "phone": "304-368-0567",
        "longitude": -80.1429364,
        "latitude": 39.4846406
      },
      {
        "line1": "261 Aikens Ctr.",
        "line2": "Suite 305",
        "city": "Martinsburg",
        "state": "WV",
        "zip": "25404",
        "phone": "304-264-4626",
        "longitude": -77.95891259999999,
        "latitude": 39.486004
      }
    ],
    "party": "Democratic",
    "phones": [
      "202-224-3954"
    ],
    "emails": [],
    "urls": [
      "https://www.manchin.senate.gov"
    ],
    "photoUrl": "https://theunitedstates.io/images/congress/450x550/M001183.jpg",
    "channels": [
      {
        "type": "Twitter",
        "id": "Sen_JoeManchin"
      },
      {
        "type": "Facebook",
        "id": "JoeManchinIII"
      },
      {
        "type": "YouTube",
        "id": "SenatorJoeManchin"
      }
    ],
    "sources": [
      "theunitedstates.io"
    ],
    "office": {
      "name": "United States Senate",
      "level": "federal"
    }
  },
  {
    "name": "Shelley Moore Capito",
    "address": [
      {
        "line1": "220 N. Kanawha St.",
        "line2": "Suite 1",
        "city": "Beckley",
        "state": "WV",
        "zip": "25801",
        "phone": "304-347-5372",
        "longitude": -81.188172,
        "latitude": 37.779625
      },
      {
        "line1": "500 Virgina Street East",
        "line2": "Suite 950",
        "city": "Charleston",
        "state": "WV",
        "zip": "25301",
        "phone": "304-347-5372",
        "longitude": -81.6380602,
        "latitude": 38.3511449
      },
      {
        "line1": "300 Foxcroft Ave.",
        "line2": "Suite 202A",
        "city": "Martinsburg",
        "state": "WV",
        "zip": "25401",
        "phone": "304-262-9285",
        "longitude": -77.986887,
        "latitude": 39.4607489
      },
      {
        "line1": "48 Donley St.",
        "line2": "Suite 504",
        "city": "Morgantown",
        "state": "WV",
        "zip": "26501",
        "phone": "304-292-2310",
        "longitude": -79.96312549999999,
        "latitude": 39.6256581
      }
    ],
    "party": "Republican",
    "phones": [
      "202-224-6472"
    ],
    "emails": [],
    "urls": [
      "https://www.capito.senate.gov"
    ],
    "photoUrl": "https://theunitedstates.io/images/congress/450x550/C001047.jpg",
    "channels": [
      {
        "type": "Twitter",
        "id": "SenCapito"
      },
      {
        "type": "Facebook",
        "id": "senshelley"
      },
      {
        "type": "Instagram",
        "id": "sencapito"
      }
    ],
    "sources": [
      "theunitedstates.io"
    ],
    "office": {
      "name": "United States Senate",
      "level": "federal"
    }
  },
  {
    "name": "James Justice",
    "address": [],
    "party": "Democratic",
    "phones": [
      "304-558-2000"
    ],
    "emails": [],
    "urls": [
      "http://www.governor.wv.gov/Pages/default.aspx"
    ],
    "photoUrl": "https://cdn.civil.services/us-governors/headshots/512x512/james-justice.jpg",
    "channels": [
      {
        "type": "Facebook",
        "id": "WVGovernor"
      },
      {
        "type": "Twitter",
        "id": "WVGovernor"
      }
    ],
    "sources": [
      "civil.services"
    ],
    "office": {
      "name": "Governor",
      "level": "state"
    }
  }
]