[{"name":"James E. Risch","address":[{"line1":"350 N. 9th St.","line2":"Suite 302","city":"Boise","state":"ID","zip":"83702","phone":"208-342-7985","longitude":-116.2024194,"latitude":43.618145},{"line1":"610 Hubbard","line2":"Suite 213","line3":"Harbor Plaza","city":"Coeur d'Alene","state":"ID","zip":"83814","phone":"208-667-6130","longitude":-116.7920799,"latitude":47.6826921},{"line1":"901 Pier View Dr.","line2":"Suite 202A","city":"Idaho Falls","state":"ID","zip":"83402","phone":"208-523-5541","longitude":-112.0514001,"latitude":43.4836745},{"line1":"313 D St.","line2":"Suite 106","city":"Lewiston","state":"ID","zip":"83501","phone":"208-743-0792","longitude":-117.028638,"latitude":46.422158},{"line1":"275 S. 5th Ave.","line2":"Suite 290","city":"Pocatello","state":"ID","zip":"83201","phone":"208-236-6817","longitude":-112.4428822,"latitude":42.8649373},{"line1":"1411 Falls Avenue East","line2":"Suite 201","city":"Twin Falls","state":"ID","zip":"83301","phone":"208-734-6780","longitude":-114.456626,"latitude":42.5785998}],"party":"Republican","phones":["202-224-2752"],"emails":[],"urls":["https://www.risch.senate.gov"],"photoUrl":"","channels":[{"type":"Twitter","id":"SenatorRisch"},{"type":"Facebook","id":"senatorjimrisch"},{"type":"YouTube","id":"SenatorJamesRisch"}],"sources":["theunitedstates.io"],"office":{"name":"United States Senate","level":"federal"}},{"name":"Mike Crapo","address":[{"line1":"251 E. Front St.","line3":"Suite 205","city":"Boise","state":"ID","zip":"83702","phone":"208-334-1776","longitude":-116.1956172,"latitude":43.6086015},{"line1":"610 Hubbard Ave","line2":"Suite 209","city":"Coeur d'Alene","state":"ID","zip":"83814","phone":"208-664-5490","longitude":-116.7920799,"latitude":47.6826921},{"line1":"410 Memorial Dr.","line2":"Suite 204","city":"Idaho Falls","state":"ID","zip":"83402","phone":"208-522-9779","longitude":-112.0425928,"latitude":43.4936265},{"line1":"313 'D' St.","line2":"Suite 105","city":"Lewiston","state":"ID","zip":"83501","phone":"208-743-1492","longitude":-117.028638,"latitude":46.422158},{"line1":"275 S. 5th Ave.","line2":"Suite 100","city":"Pocatello","state":"ID","zip":"83201","phone":"208-236-6775","longitude":-112.4428822,"latitude":42.8649373},{"line1":"202 Falls Ave.","line2":"Suite 2","city":"Twin Falls","state":"ID","zip":"83301","phone":"208-734-2515","longitude":-114.47751,"latitude":42.5776169}],"party":"Republican","phones":["202-224-6142"],"emails":[],"urls":["https://www.crapo.senate.gov"],"photoUrl":"","channels":[{"type":"Twitter","id":"MikeCrapo"},{"type":"Facebook","id":"mikecrapo"},{"type":"YouTube","id":"senatorcrapo"},{"type":"Instagram","id":"mikecrapo"}],"sources":["theunitedstates.io"],"office":{"name":"United States Senate","level":"federal"}},{"name":"Brad Little","address":[],"party":"Republican","phones":["208-334-2100"],"emails":[],"urls":["http://gov.idaho.gov/"],"photoUrl":"https://cdn.civil.services/us-governors/headshots/512x512/brad-little.jpg","channels":[{"type":"Facebook","id":"bradlittleforidaho"},{"type":"Twitter","id":"GovernorLittle"}],"sources":["civil.services"],"office":{"name":"Governor","level":"state"}}]