[{"name":"Robert P. Casey, Jr.","address":[{"line1":"840 Hamilton St.","line2":"Suite 301","city":"Allentown","state":"PA","zip":"18101","phone":"610-782-9470","longitude":-75.47499979999999,"latitude":40.6010783},{"line1":"817 E. Bishop St.","line2":"Suite C","city":"Bellefonte","state":"PA","zip":"16823","phone":"814-357-0314","longitude":-77.7641528,"latitude":40.9138418},{"line1":"17 S. Park Row.","line2":"Suite B-150","city":"Erie","state":"PA","zip":"16501","phone":"814-874-5080","longitude":-80.08406889999999,"latitude":42.1289745},{"line1":"200 N. Third St.","line2":"Suite 14A","city":"Harrisburg","state":"PA","zip":"17101","phone":"717-231-7540","longitude":-76.8829619,"latitude":40.2619774},{"line1":"2000 Market St.","line2":"Suite 610","city":"Philadelphia","state":"PA","zip":"19103","phone":"215-405-9660","longitude":-75.1736461,"latitude":39.9532694},{"line1":"310 Grant St.","line2":"Suite 2415","line3":"Grant Building","city":"Pittsburgh","state":"PA","zip":"15219","phone":"412-803-7370","longitude":-79.99749159999999,"latitude":40.4376694},{"line1":"417 Lackawanna Ave.","line2":"Suite 303","city":"Scranton","state":"PA","zip":"18503","phone":"570-941-0930","longitude":-75.6654743,"latitude":41.4073687}],"party":"Democratic","phones":["202-224-6324"],"emails":[],"urls":["https://www.casey.senate.gov"],"photoUrl":"","channels":[],"sources":["theunitedstates.io"],"office":{"name":"United States Senate","level":"federal"}},{"name":"Patrick J. Toomey","address":[{"line1":"1150 S. Cedar Crest Blvd","line2":"Suite 101","city":"Allentown","state":"PA","zip":"18103","phone":"610-434-1444","longitude":-75.519529,"latitude":40.569891},{"line1":"17 S. Park Row.","line2":"Suite B-120","line3":"United States Federal Building","city":"Erie","state":"PA","zip":"16501","phone":"814-453-3010","longitude":-80.08406889999999,"latitude":42.1289745},{"line1":"228 Walnut St.","line2":"Suite 1104","line3":"United States Federal Building","city":"Harrisburg","state":"PA","zip":"17101","phone":"717-782-3951","longitude":-76.882739,"latitude":40.261919},{"line1":"200 Chestnut Street","line2":"Suite 600","line3":"US Custom House","city":"Philadelphia","state":"PA","zip":"19106","phone":"215-241-1090","longitude":-75.1441,"latitude":39.94829},{"line1":"310 Grant St.","line2":"Suite 1440","city":"Pittsburgh","state":"PA","zip":"15219","phone":"412-803-3501","longitude":-79.9996749,"latitude":40.4376735},{"line1":"7 North Wilkes-Barre Boulevard","line2":"Suite 406","city":"Wilkes-Barre","state":"PA","zip":"18702","phone":"570-820-4088","longitude":-75.8773626,"latitude":41.2419893},{"line1":"1397 Eisenhower Blvd","line2":"Suite 302","line3":"Richland Square III","city":"Johnstown","state":"PA","zip":"15904","phone":"814-266-5970","longitude":-78.848055,"latitude":40.273143}],"party":"Republican","phones":["202-224-4254"],"emails":[],"urls":["https://www.toomey.senate.gov"],"photoUrl":"","channels":[],"sources":["theunitedstates.io"],"office":{"name":"United States Senate","level":"federal"}},{"name":"Thomas Wolf","address":[],"party":"Democratic","phones":["717-787-2500"],"emails":[],"urls":["https://www.governor.pa.gov/"],"photoUrl":"https://cdn.civil.services/us-governors/headshots/512x512/thomas-wolf.jpg","channels":[{"type":"Facebook","id":"governorwolf"},{"type":"Twitter","id":"governortomwolf"}],"sources":["civil.services"],"office":{"name":"Governor","level":"state"}}]