[{"name":"Catherine Cortez Masto","address":[{"line1":"333 Las Vegas Boulevard South","line2":"Suite 8016","city":"Las Vegas","state":"NV","zip":"89101","phone":"702-388-5020","longitude":-115.1424211,"latitude":36.1651058},{"line1":"400 South Virginia Street","line2":"Suite 902","line3":"Courthouse and Federal Building","city":"Reno","state":"NV","zip":"89501","phone":"775-686-5750","longitude":-119.810287,"latitude":39.5215352}],"party":"Democratic","phones":["202-224-3542"],"emails":[],"urls":["https://www.cortezmasto.senate.gov"],"photoUrl":"https://theunitedstates.io/images/congress/450x550/C001113.jpg","channels":[{"type":"Twitter","id":"sencortezmasto"},{"type":"Facebook","id":"SenatorCortezMasto"}],"sources":["theunitedstates.io"],"office":{"name":"United States Senate","level":"federal"}},{"name":"Jacky Rosen","address":[{"line1":"8872 S. Eastern Ave.","line2":"Suite 220","city":"Las Vegas","state":"NV","zip":"89123","phone":"702-963-9500","longitude":-115.1159622,"latitude":36.0278905}],"party":"Democratic","phones":["202-224-6244"],"emails":[],"urls":["https://www.rosen.senate.gov"],"photoUrl":"https://theunitedstates.io/images/congress/450x550/R000608.jpg","channels":[{"type":"Twitter","id":"SenJackyRosen"},{"type":"Facebook","id":"RepJackyRosen"},{"type":"Instagram","id":"repjackyrosen"}],"sources":["theunitedstates.io"],"office":{"name":"United States Senate","level":"federal"}},{"name":"Steve Sisolak","address":[],"party":"Democratic","phones":["775-684-5670"],"emails":[],"urls":["http://gov.nv.gov/"],"photoUrl":"https://cdn.civil.services/us-governors/headshots/512x512/steve-sisolak.jpg","channels":[{"type":"Facebook","id":"VoteSteveSisolak"},{"type":"Twitter","id":"stevesisolak"}],"sources":["civil.services"],"office":{"name":"Governor","level":"state"}}]