[{"name":"John Thune","address":[{"line1":"320 S. 1st St.","line2":"Suite 101","city":"Aberdeen","state":"SD","zip":"57401","phone":"605-225-8823","longitude":-98.4898984,"latitude":45.4614099},{"line1":"246 Founders Park Dr.","line2":"Suite 102","city":"Rapid City","state":"SD","zip":"57701","phone":"605-348-7551","longitude":-103.239745,"latitude":44.0872508},{"line1":"5015 S. Bur Oak Place","city":"Sioux Falls","state":"SD","zip":"57108","phone":"605-334-9596","longitude":-96.76391439999999,"latitude":43.4995298}],"party":"Republican","phones":["202-224-2321"],"emails":[],"urls":["https://www.thune.senate.gov"],"photoUrl":"https://theunitedstates.io/images/congress/450x550/T000250.jpg","channels":[{"type":"Twitter","id":"SenJohnThune"},{"type":"YouTube","id":"johnthune"},{"type":"Instagram","id":"senjohnthune"}],"sources":["theunitedstates.io"],"office":{"name":"United States Senate","level":"federal"}},{"name":"Mike Rounds","address":[{"line1":"514 S. Main St.","line2":"Suite 100","city":"Aberdeen","state":"SD","zip":"57401","phone":"605-225-0366","longitude":-98.48834950000001,"latitude":45.45953249999999},{"line1":"111 W. Capitol Ave.","line2":"Suite 210","city":"Pierre","state":"SD","zip":"57501","phone":"605-224-1450","longitude":-100.35182,"latitude":44.36917280000001},{"line1":"1313 W. Main St.","city":"Rapid City","state":"SD","zip":"57701","phone":"605-343-5035","longitude":-103.2403111,"latitude":44.0818193},{"line1":"320 N. Main Ave.","line2":"Suite A","city":"Sioux Falls","state":"SD","zip":"57104","phone":"605-336-0486","longitude":-96.7279008,"latitude":43.5506861}],"party":"Republican","phones":["202-224-5842"],"emails":[],"urls":["https://www.rounds.senate.gov"],"photoUrl":"https://theunitedstates.io/images/congress/450x550/R000605.jpg","channels":[{"type":"Twitter","id":"SenatorRounds"},{"type":"Facebook","id":"SenatorMikeRounds"}],"sources":["theunitedstates.io"],"office":{"name":"United States Senate","level":"federal"}},{"name":"Dusty Johnson","address":[],"party":"Republican","phones":["202-225-2801"],"emails":[],"urls":["https://dustyjohnson.house.gov/"],"photoUrl":"https://theunitedstates.io/images/congress/450x550/J000301.jpg","channels":[{"type":"Twitter","id":"RepDustyJohnson"}],"sources":["theunitedstates.io"],"office":{"name":"United States House of Representatives","level":"federal"}},{"name":"Kristi Noem","address":[],"party":"Republican","phones":["605-773-3212"],"emails":[],"urls":["http://sd.gov/governor/"],"photoUrl":"https://cdn.civil.services/us-governors/headshots/512x512/kristi-noem.jpg","channels":[{"type":"Facebook","id":"kristiforgovernor"},{"type":"Twitter","id":"kristinoem"}],"sources":["civil.services"],"office":{"name":"Governor","level":"state"}}]