[{"name":"Susan M. Collins","address":[{"line1":"68 Sewall St.","line2":"Room 507","city":"Augusta","state":"ME","zip":"04330","phone":"207-622-8414","longitude":-69.783697,"latitude":44.310824},{"line1":"202 Harlow St.","line2":"Room 20100","city":"Bangor","state":"ME","zip":"04401","phone":"207-945-0417","longitude":-68.7737891,"latitude":44.8046399},{"line1":"160 Main St.","city":"Biddeford","state":"ME","zip":"04005","phone":"207-283-1101","longitude":-70.4548329,"latitude":43.493177},{"line1":"25 Sweden St.","line2":"Suite A","city":"Caribou","state":"ME","zip":"04736","phone":"207-493-7873","longitude":-68.013198,"latitude":46.860458},{"line1":"55 Lisbon St.","city":"Lewiston","state":"ME","zip":"04240","phone":"207-784-6969","longitude":-70.217972,"latitude":44.097439},{"line1":"One Canal Plaza","line2":"Suite 802","city":"Portland","state":"ME","zip":"04101","phone":"207-780-3575","longitude":-70.2551294,"latitude":43.6566885}],"party":"Republican","phones":["202-224-2523"],"emails":[],"urls":["https://www.collins.senate.gov"],"photoUrl":"https://theunitedstates.io/images/congress/450x550/C001035.jpg","channels":[{"type":"Twitter","id":"SenatorCollins"},{"type":"Facebook","id":"susancollins"},{"type":"YouTube","id":"SenatorSusanCollins"},{"type":"Instagram","id":"sensusancollins"}],"sources":["theunitedstates.io"],"office":{"name":"United States Senate","level":"federal"}},{"name":"Angus S. King, Jr.","address":[{"line1":"4 Gabriel Dr.","line2":"Suite 3","city":"Augusta","state":"ME","zip":"04330","phone":"207-622-8292","longitude":-69.7940768,"latitude":44.3676495},{"line1":"202 Harlow St.","line2":"Suite 20350","city":"Bangor","state":"ME","zip":"04401","phone":"207-945-8000","longitude":-68.7737891,"latitude":44.8046399},{"line1":"169 Academy St.","line2":"Suite A","city":"Presque Isle","state":"ME","zip":"04769","phone":"207-764-5124","longitude":-67.9956649,"latitude":46.6766073},{"line1":"383 Route 1","line2":"Suite 1C","city":"Scarborough","state":"ME","zip":"04074","phone":"207-883-1588","longitude":-70.3582263,"latitude":43.5854463}],"party":"Independent","phones":["202-224-5344"],"emails":[],"urls":["https://www.king.senate.gov"],"photoUrl":"https://theunitedstates.io/images/congress/450x550/K000383.jpg","channels":[{"type":"Twitter","id":"SenAngusKing"},{"type":"Facebook","id":"SenatorAngusSKingJr"},{"type":"YouTube","id":"SenatorAngusKing"}],"sources":["theunitedstates.io"],"office":{"name":"United States Senate","level":"federal"}},{"name":"Janet Mills","address":[],"party":"Republican","phones":["207-287-3531"],"emails":[],"urls":["https://www.maine.gov/governor/"],"photoUrl":"https://cdn.civil.services/us-governors/headshots/512x512/janet-mills.jpg","channels":[{"type":"Facebook","id":"millsforgovernor"},{"type":"Twitter","id":"JanetMillsforME"}],"sources":["civil.services"],"office":{"name":"Governor","level":"state"}}]