[{"name":"Robert Menendez","address":[{"line1":"208 White Horse Pike","line2":"Suite 18","city":"Barrington","state":"NJ","zip":"08007","phone":"856-757-5353","longitude":-75.04718439999999,"latitude":39.8730588},{"line1":"One Gateway Center","line2":"Suite 1100","city":"Newark","state":"NJ","zip":"07102","phone":"973-645-3030","longitude":-74.1657213,"latitude":40.7344571}],"party":"Democratic","phones":["202-224-4744"],"emails":[],"urls":["https://www.menendez.senate.gov"],"photoUrl":"","channels":[{"type":"Twitter","id":"SenatorMenendez"},{"type":"Facebook","id":"senatormenendez"},{"type":"YouTube","id":"SenatorMenendezNJ"},{"type":"Instagram","id":"senatormenendez"}],"sources":["theunitedstates.io"],"office":{"name":"United States Senate","level":"federal"}},{"name":"Cory A. Booker","address":[{"line1":"2 Riverside Dr.","line2":"Suite 505","line3":"One Port Center","city":"Camden","state":"NJ","zip":"08101","phone":"856-338-8922","longitude":-75.1296174,"latitude":39.9443128},{"line1":"One Gateway Center","line2":"23rd Floor","city":"Newark","state":"NJ","zip":"07102","phone":"973-639-8700","longitude":-74.1657213,"latitude":40.7344571}],"party":"Democratic","phones":["202-224-3224"],"emails":[],"urls":["https://www.booker.senate.gov"],"photoUrl":"","channels":[{"type":"Twitter","id":"SenBooker"},{"type":"YouTube","id":"SenCoryBooker"}],"sources":["theunitedstates.io"],"office":{"name":"United States Senate","level":"federal"}},{"name":"Philip Murphy","address":[],"party":"Democratic","phones":["609-292-6000"],"emails":[],"urls":["http://www.nj.gov/governor/"],"photoUrl":"https://cdn.civil.services/us-governors/headshots/512x512/philip-murphy.jpg","channels":[{"type":"Facebook","id":"PhilMurphyNJ"},{"type":"Twitter","id":"philmurphynj"}],"sources":["civil.services"],"office":{"name":"Governor","level":"state"}}]