[{"name":"Sherrod Brown","address":[{"line1":"425 Walnut St.","line2":"Suite 2310","city":"Cincinnati","state":"OH","zip":"45202","phone":"513-684-1021","longitude":-84.5120256,"latitude":39.1007745},{"line1":"801 W. Superior Ave.","line2":"Suite 1400","city":"Cleveland","state":"OH","zip":"44113","phone":"216-522-7272","longitude":-81.6975439,"latitude":41.4964399},{"line1":"200 N. High St.","line2":"Room 614","city":"Columbus","state":"OH","zip":"43215","phone":"614-469-2083","longitude":-83.000974,"latitude":39.9666883},{"line1":"200 W. Erie Ave.","line2":"Suite 312","city":"Lorain","state":"OH","zip":"44052","phone":"440-242-4100","longitude":-82.1792684,"latitude":41.4685695}],"party":"Democratic","phones":["202-224-2315"],"emails":[],"urls":["https://www.brown.senate.gov"],"photoUrl":"","channels":[{"type":"Twitter","id":"SenSherrodBrown"},{"type":"Facebook","id":"SenatorSherrodBrown"},{"type":"YouTube","id":"SherrodBrownOhio"}],"sources":["theunitedstates.io"],"office":{"name":"United States Senate","level":"federal"}},{"name":"Rob Portman","address":[{"line1":"312 Walnut St.","line2":"Suite 3425","city":"Cincinnati","state":"OH","zip":"45202","phone":"513-684-3265","longitude":-84.5103687,"latitude":39.0993058},{"line1":"1240 E. 9th St.","line2":"Room 3061","city":"Cleveland","state":"OH","zip":"44199","phone":"216-522-7095","longitude":-81.69179849999999,"latitude":41.50477110000001},{"line1":"37 W. Broad St.","line2":"Room 300","city":"Columbus","state":"OH","zip":"43215","phone":"614-469-6774","longitude":-83.00202759999999,"latitude":39.9617817},{"line1":"420 Madison Ave.","line2":"Room 1210","city":"Toledo","state":"OH","zip":"43604","phone":"419-259-3895","longitude":-83.53530549999999,"latitude":41.6518781}],"party":"Republican","phones":["202-224-3353"],"emails":[],"urls":["https://www.portman.senate.gov"],"photoUrl":"","channels":[{"type":"Twitter","id":"SenRobPortman"},{"type":"Facebook","id":"senrobportman"},{"type":"YouTube","id":"SenRobPortman"},{"type":"Instagram","id":"senrobportman"}],"sources":["theunitedstates.io"],"office":{"name":"United States Senate","level":"federal"}},{"name":"Michael DeWine","address":[],"party":"Republican","phones":["614-466-3555"],"emails":[],"urls":["http://governor.ohio.gov/"],"photoUrl":"https://cdn.civil.services/us-governors/headshots/512x512/michael-dewine.jpg","channels":[{"type":"Facebook","id":"MikeDeWine"},{"type":"Twitter","id":"mikedewine?lang=en"}],"sources":["civil.services"],"office":{"name":"Governor","level":"state"}}]