[
  {
    "name": "Roy Blunt",
    "address": [
      {
        "line1": "338 Broadway",
        "line2": "Suite 303",
        "city": "Cape Girardeau",
        "state": "MO",
        "zip": "63701",
        "phone": "573-334-7044",
        "longitude": -89.5241403,
        "latitude": 37.3064303
      },
      {
        "line1": "1123 Wilkes Blvd",
        "line2": "Suite 320",
        "city": "Columbia",
        "state": "MO",
        "zip": "65201",
        "phone": "573-442-8151",
        "longitude": -92.3229127,
        "latitude": 38.9606243
      },
      {
        "line1": "1000 Walnut St.",
        "line2": "Suite 1560",
        "city": "Kansas City",
        "state": "MO",
        "zip": "64106",
        "phone": "816-471-7141",
        "longitude": -94.5825038,
        "latitude": 39.1021449
      },
      {
        "line1": "111 S 10th St",
        "line2": "23.305",
        "line3": "Thomas F. Eagleton U.S. Courthouse",
        "city": "Saint Louis",
        "state": "MO",
        "zip": "63102-1125",
        "phone": "314-725-4484",
        "longitude": -90.196,
        "latitude": 38.62588
      },
      {
        "line1": "2740 B E. Sunshine",
        "city": "Springfield",
        "state": "MO",
        "zip": "65804",
        "phone": "417-877-7814",
        "longitude": -93.240439,
        "latitude": 37.180415
      }
    ],
    "party": "Republican",
    "phones": [
      "202-224-5721"
    ],
    "emails": [],
    "urls": [
      "https://www.blunt.senate.gov"
    ],
    "photoUrl": "https://theunitedstates.io/images/congress/450x550/B000575.jpg",
    "channels": [
      {
        "type": "Twitter",
        "id": "RoyBlunt"
      },
      {
        "type": "Facebook",
        "id": "SenatorBlunt"
      },
      {
        "type": "YouTube",
        "id": "SenatorBlunt"
      },
      {
        "type": "Instagram",
        "id": "royblunt"
      }
    ],
    "sources": [
      "theunitedstates.io"
    ],
    "office": {
      "name": "United States Senate",
      "level": "federal"
    }
  },
  {
    "name": "Josh Hawley",
    "address": [],
    "party": "Republican",
    "phones": [
      "202-224-6154"
    ],
    "emails": [],
    "urls": [
      "https://www.hawley.senate.gov"
    ],
    "photoUrl": "https://theunitedstates.io/images/congress/450x550/H001089.jpg",
    "channels": [
      {
        "type": "Twitter",
        "id": "SenHawleyPress"
      }
    ],
    "sources": [
      "theunitedstates.io"
    ],
    "office": {
      "name": "United States Senate",
      "level": "federal"
    }
  },
  {
    "name": "Michael Parson",
    "address": [],
    "party": "Republican",
    "phones": [
      "573-751-3222"
    ],
    "emails": [],
    "urls": [
      "https://governor.mo.gov/"
    ],
    "photoUrl": "https://cdn.civil.services/us-governors/headshots/512x512/michael-parson.jpg",
    "channels": [
      {
        "type": "Facebook",
        "id": "TeamMikeParson"
      },
      {
        "type": "Twitter",
        "id": "mikeparson"
      }
    ],
    "sources": [
      "civil.services"
    ],
    "office": {
      "name": "Governor",
      "level": "state"
    }
  }
]