[{"name":"Marco Rubio","address":[{"line1":"2120 Main St.","line2":"Room 200","city":"Fort Myers","state":"FL","zip":"33901","phone":"239-318-6464","longitude":-81.8727155,"latitude":26.6426923},{"line1":"300 North Hogan St.","line2":"Suite 8-111","line3":"Bryan Simpson U.S. Courthouse","city":"Jacksonville","state":"FL","zip":"32202","phone":"904-354-4300","longitude":-81.65997,"latitude":30.32909},{"line1":"7400 SW 87th Ave.","line2":"Suite 270","city":"Miami","state":"FL","zip":"33173","phone":"305-596-4224","longitude":-80.3372066,"latitude":25.7001209},{"line1":"201 S. Orange Ave.","line2":"Suite 350","city":"Orlando","state":"FL","zip":"32801","phone":"407-254-2573","longitude":-81.3780508,"latitude":28.5400755},{"line1":"4580 PGA Blvd.","line2":"Suite 201","city":"Palm Beach Gardens","state":"FL","zip":"33418","phone":"561-775-3360","longitude":-80.11140940000001,"latitude":26.8380427},{"line1":"700 S. Palafox St.","line2":"Suite 125","city":"Pensacola","state":"FL","zip":"32502","phone":"850-433-2603","longitude":-87.213161,"latitude":30.405605},{"line1":"402 S. Monroe St.","line2":"Suite 2105E","city":"Tallahassee","state":"FL","zip":"32399","phone":"850-599-9100","longitude":-84.281289,"latitude":30.438114},{"line1":"801 N. Florida Ave.","line2":"Suite 1130","line3":"Sam M. Gibbons U.S. Courthouse","city":"Tampa","state":"FL","zip":"33602","phone":"813-853-1099","longitude":-82.4604482,"latitude":27.9514709}],"party":"Republican","phones":["202-224-3041"],"emails":[],"urls":["https://www.rubio.senate.gov"],"photoUrl":"","channels":[{"type":"Twitter","id":"SenRubioPress"},{"type":"Facebook","id":"SenatorMarcoRubio"},{"type":"YouTube","id":"SenatorMarcoRubio"}],"sources":["theunitedstates.io"],"office":{"name":"United States Senate","level":"federal"}},{"name":"Rick Scott","address":[],"party":"Republican","phones":["202-224-5274"],"emails":[],"urls":["https://www.senate.gov/senators/116thCongress/ScottRick.htm"],"photoUrl":"","channels":[],"sources":["theunitedstates.io"],"office":{"name":"United States Senate","level":"federal"}},{"name":"Ronald DeSantis","address":[],"party":"Republican","phones":["850-488-7146"],"emails":[],"urls":["http://www.flgov.com/"],"photoUrl":"https://cdn.civil.services/us-governors/headshots/512x512/ronald-desantis.jpg","channels":[{"type":"Facebook","id":"RonDeSantisFlorida"},{"type":"Twitter","id":"rondesantisfl"}],"sources":["civil.services"],"office":{"name":"Governor","level":"state"}}]