[
  {
    "name": "Richard Burr",
    "address": [
      {
        "line1": "151 Patton Ave.",
        "line2": "Suite 204",
        "line3": "Federal Building",
        "city": "Asheville",
        "state": "NC",
        "zip": "28801",
        "phone": "828-350-2437",
        "longitude": -82.55792,
        "latitude": 35.594066
      },
      {
        "line1": "100 Coast Line St.",
        "line2": "Room 210",
        "city": "Rocky Mount",
        "state": "NC",
        "zip": "27804",
        "phone": "252-977-9522",
        "longitude": -77.7977748,
        "latitude": 35.9379802
      },
      {
        "line1": "201 N. Front St.",
        "line2": "Suite 809",
        "city": "Wilmington",
        "state": "NC",
        "zip": "28401",
        "phone": "888-848-1833",
        "longitude": -77.9492582,
        "latitude": 34.2376985
      },
      {
        "line1": "2000 W. First St.",
        "line2": "Suite 508",
        "city": "Winston-Salem",
        "state": "NC",
        "zip": "27104",
        "phone": "336-631-5125",
        "longitude": -80.27480249999999,
        "latitude": 36.0960116
      }
    ],
    "party": "Republican",
    "phones": [
      "202-224-3154"
    ],
    "emails": [],
    "urls": [
      "https://www.burr.senate.gov"
    ],
    "photoUrl": "https://theunitedstates.io/images/congress/450x550/B001135.jpg",
    "channels": [
      {
        "type": "Twitter",
        "id": "SenatorBurr"
      },
      {
        "type": "Facebook",
        "id": "SenatorRichardBurr"
      },
      {
        "type": "YouTube",
        "id": "SenatorRichardBurr"
      },
      {
        "type": "Instagram",
        "id": "senatorburr"
      }
    ],
    "sources": [
      "theunitedstates.io"
    ],
    "office": {
      "name": "United States Senate",
      "level": "federal"
    }
  },
  {
    "name": "Thom Tillis",
    "address": [
      {
        "line1": "9300 Harris Corners Pkwy.",
        "line2": "Suite 170",
        "city": "Charlotte",
        "state": "NC",
        "zip": "28269",
        "phone": "704-509-9087",
        "longitude": -80.8466732,
        "latitude": 35.34589709999999
      },
      {
        "line1": "1694 E. Arlington Blvd.",
        "line2": "Suite B",
        "city": "Greenville",
        "state": "NC",
        "zip": "27858",
        "phone": "252-329-0371",
        "longitude": -77.3592441,
        "latitude": 35.5709032
      },
      {
        "line1": "1 Historic Courthouse Square",
        "line2": "Suite 112",
        "city": "Hendersonville",
        "state": "NC",
        "zip": "28792",
        "phone": "828-693-8750",
        "longitude": -82.460467,
        "latitude": 35.314451
      },
      {
        "line1": "1840 Eastchester Dr.",
        "line2": "Suite 200",
        "city": "High Point",
        "state": "NC",
        "zip": "27265",
        "phone": "336-885-0685",
        "longitude": -79.98567299999999,
        "latitude": 36.008425
      },
      {
        "line1": "310 New Bern Ave.",
        "line2": "Suite 122",
        "city": "Raleigh",
        "state": "NC",
        "zip": "27601",
        "phone": "919-856-4630",
        "longitude": -78.63388100000002,
        "latitude": 35.7799621
      }
    ],
    "party": "Republican",
    "phones": [
      "202-224-6342"
    ],
    "emails": [],
    "urls": [
      "https://www.tillis.senate.gov"
    ],
    "photoUrl": "https://theunitedstates.io/images/congress/450x550/T000476.jpg",
    "channels": [
      {
        "type": "Twitter",
        "id": "senthomtillis"
      },
      {
        "type": "Facebook",
        "id": "SenatorThomTillis"
      },
      {
        "type": "Instagram",
        "id": "senthomtillis"
      }
    ],
    "sources": [
      "theunitedstates.io"
    ],
    "office": {
      "name": "United States Senate",
      "level": "federal"
    }
  },
  {
    "name": "Roy Cooper",
    "address": [],
    "party": "Democratic",
    "phones": [
      "919-814-2000"
    ],
    "emails": [],
    "urls": [
      "https://governor.nc.gov/"
    ],
    "photoUrl": "https://cdn.civil.services/us-governors/headshots/512x512/roy-cooper.jpg",
    "channels": [
      {
        "type": "Facebook",
        "id": "NCgovernor"
      },
      {
        "type": "Twitter",
        "id": "NC_Governor"
      }
    ],
    "sources": [
      "civil.services"
    ],
    "office": {
      "name": "Governor",
      "level": "state"
    }
  }
]