[{"name":"Tom Reed","address":[{"line1":"89 W. Market St.","city":"Corning","state":"NY","zip":"14830","phone":"607-654-7566","longitude":-77.0580681,"latitude":42.1441654},{"line1":"433 Exchange St.","city":"Geneva","state":"NY","zip":"14456","phone":"315-759-5229","longitude":-76.980885,"latitude":42.868166},{"line1":"401 E. State St.","line2":"Suite 410","city":"Ithaca","state":"NY","zip":"14850","phone":"607-222-2027","longitude":-76.4933839,"latitude":42.4391794},{"line1":"2 E. 2nd St.","line2":"Suite 208","city":"Jamestown","state":"NY","zip":"14701","phone":"716-708-6369","longitude":-79.2406941,"latitude":42.0953958},{"line1":"One Bluebird Square","city":"Olean","state":"NY","zip":"14760","phone":"716-379-8434","longitude":-78.43005699999999,"latitude":42.07941}],"party":"Republican","phones":["202-225-3161"],"emails":[],"urls":["https://reed.house.gov"],"photoUrl":"","channels":[],"sources":["theunitedstates.io"],"office":{"name":"United States House of Representatives NY-23","level":"federal"}}]