[{"name":"Deb Fischer","address":[{"line1":"20 W. 23rd St.","city":"Kearney","state":"NE","zip":"68847","phone":"308-234-2361","longitude":-99.0819184,"latitude":40.6986843},{"line1":"440 N. 8th St.","line2":"Suite 120","city":"Lincoln","state":"NE","zip":"68508","phone":"402-441-4600","longitude":-96.7095183,"latitude":40.8177383},{"line1":"11819 Miracle Hills Drive","line2":"Suite 205","city":"Omaha","state":"NE","zip":"68154","phone":"402-391-3411","longitude":-96.0980857,"latitude":41.26733180000001},{"line1":"120 East 16th St.","line2":"Suite 203","city":"Scottsbluff","state":"NE","zip":"69361","phone":"308-630-2329","longitude":-103.6483008,"latitude":41.8680501}],"party":"Republican","phones":["202-224-6551"],"emails":[],"urls":["https://www.fischer.senate.gov"],"photoUrl":"","channels":[],"sources":["theunitedstates.io"],"office":{"name":"United States Senate","level":"federal"}},{"name":"Ben Sasse","address":[{"line1":"4111 Fourth Ave.","line2":"Suite 26","city":"Kearney","state":"NE","zip":"68845","phone":"308-233-3677","longitude":-99.086211,"latitude":40.715284},{"line1":"1128 Lincoln Mall","line2":"Suite 305","city":"Lincoln","state":"NE","zip":"68508","phone":"402-476-1400","longitude":-96.7048142,"latitude":40.8084319},{"line1":"304 N. 168th Cir.","line2":"Suite 213","city":"Omaha","state":"NE","zip":"68118","phone":"402-550-8040","longitude":-96.1778064,"latitude":41.2618733},{"line1":"115 Railway St.","line2":"Suite C102","city":"Scottsbluff","state":"NE","zip":"69361","phone":"308-632-6032","longitude":-103.6650529,"latitude":41.8624626}],"party":"Republican","phones":["202-224-4224"],"emails":[],"urls":["https://www.sasse.senate.gov/public"],"photoUrl":"","channels":[],"sources":["theunitedstates.io"],"office":{"name":"United States Senate","level":"federal"}},{"name":"John Ricketts","address":[],"party":"Republican","phones":["402-471-2244"],"emails":[],"urls":["https://governor.nebraska.gov/"],"photoUrl":"https://cdn.civil.services/us-governors/headshots/512x512/john-ricketts.jpg","channels":[{"type":"Facebook","id":"GovernorPeteRicketts"},{"type":"Twitter","id":"GovRicketts"}],"sources":["civil.services"],"office":{"name":"Governor","level":"state"}}]