[{"name":"Dianne Feinstein","address":[{"line1":"2500 Tulare St.","line2":"Suite 4290","city":"Fresno","state":"CA","zip":"93721","phone":"559-485-7430","longitude":-119.7836709,"latitude":36.7374775},{"line1":"11111 Santa Monica Blvd.","line2":"Suite 915","city":"Los Angeles","state":"CA","zip":"90025","phone":"310-914-7300","longitude":-118.444656,"latitude":34.0476223},{"line1":"880 Front St.","line2":"Suite 4236","city":"San Diego","state":"CA","zip":"92101","phone":"619-231-9712","longitude":-117.1647085,"latitude":32.7143481},{"line1":"One Post Street","line2":"Suite 2450","city":"San Francisco","state":"CA","zip":"94104","phone":"415-393-0707","longitude":-122.4026656,"latitude":37.7887748}],"party":"Democratic","phones":["202-224-3841"],"emails":[],"urls":["https://www.feinstein.senate.gov"],"photoUrl":"","channels":[],"sources":["theunitedstates.io"],"office":{"name":"United States Senate","level":"federal"}},{"name":"Kamala D. Harris","address":[{"line1":"501 I Street","line2":"Suite 7-600","city":"Sacramento","state":"CA","zip":"95814","phone":"916-448-2787","longitude":-121.4987519,"latitude":38.583455},{"line1":"2500 Tulare Street","line2":"Suite 5290","city":"Fresno","state":"CA","zip":"93721","phone":"559-497-5109","longitude":-119.7836709,"latitude":36.7374775},{"line1":"312 N. Spring St.","line2":"Suite 1748","city":"Los Angeles","state":"CA","zip":"90012","phone":"213-894-5000","longitude":-118.241422,"latitude":34.0552049},{"line1":"50 United Nations Plaza","line2":"Suite 5584","city":"San Francisco","state":"CA","zip":"94102","phone":"415-355-9041","longitude":-122.4144643,"latitude":37.7804298},{"line1":"600 B Street","line2":"Suite 2240","city":"San Diego","state":"CA","zip":"92101","phone":"619-239-3884","longitude":-117.1587103,"latitude":32.7182014}],"party":"Democratic","phones":["202-224-3553"],"emails":[],"urls":["https://www.harris.senate.gov"],"photoUrl":"","channels":[],"sources":["theunitedstates.io"],"office":{"name":"United States Senate","level":"federal"}},{"name":"Gavin Newsom","address":[],"party":"Democratic","phones":["916-445-2841"],"emails":[],"urls":["http://gov.ca.gov/"],"photoUrl":"https://cdn.civil.services/us-governors/headshots/512x512/gavin-newsom.jpg","channels":[{"type":"Facebook","id":"GavinNewsom"},{"type":"Twitter","id":"GavinNewsom"}],"sources":["civil.services"],"office":{"name":"Governor","level":"state"}}]