[{"name":"Benjamin L. Cardin","address":[{"line1":"100 S. Charles St.","line2":"Suite 1710","line3":"Tower 1","city":"Baltimore","state":"MD","zip":"21201","phone":"410-962-4436","longitude":-76.6156372,"latitude":39.2871649},{"line1":"10201 Martin Luther King Jr. Highway","line2":"Suite 210","city":"Bowie","state":"MD","zip":"20720","phone":"301-860-0414","longitude":-76.82809809999999,"latitude":38.9550571},{"line1":"13 Canal St.","line2":"Room 305","city":"Cumberland","state":"MD","zip":"21502","phone":"301-777-2957","longitude":-78.76360249999999,"latitude":39.6495579},{"line1":"451 Hungerford Dr.","line2":"Suite 230","city":"Rockville","state":"MD","zip":"20850","phone":"301-762-2974","longitude":-77.1511348,"latitude":39.0895234},{"line1":"212 W. Main St.","line2":"Suite 301C","line3":"Plaza Gallery Building","city":"Salisbury","state":"MD","zip":"21801","phone":"410-546-4250","longitude":-75.6023764,"latitude":38.3652837}],"party":"Democratic","phones":["202-224-4524"],"emails":[],"urls":["https://www.cardin.senate.gov"],"photoUrl":"","channels":[],"sources":["theunitedstates.io"],"office":{"name":"United States Senate","level":"federal"}},{"name":"Chris Van Hollen","address":[{"line1":"111 Rockville Pike","line2":"Suite 960","city":"Rockville","state":"MD","zip":"20850","phone":"301-545-1500","longitude":-77.15119,"latitude":39.08895},{"line1":"32 West Washington Street","line2":"Suite 203","city":"Hagerstown","state":"MD","zip":"21740","phone":"301-797-2826","longitude":-77.7191,"latitude":39.64151},{"line1":"1900 North Howard Street","line2":"Suite 100","city":"Baltimore","state":"MD","zip":"21218","phone":"667-212-4610","longitude":-76.6216137,"latitude":39.3114748},{"line1":"60 West Street","line2":"Suite 107","city":"Annapolis","state":"MD","zip":"21401","phone":"410-263-1325","longitude":-76.4976378,"latitude":38.9785971},{"line1":"204 Cedar Street","line2":"Suite 200C","city":"Cambridge","state":"MD","zip":"21613","longitude":-76.0752663,"latitude":38.5650251}],"party":"Democratic","phones":["202-224-4654"],"emails":[],"urls":["https://www.vanhollen.senate.gov"],"photoUrl":"","channels":[],"sources":["theunitedstates.io"],"office":{"name":"United States Senate","level":"federal"}}]