[{"name":"John Barrasso","address":[{"line1":"100 E. B St.","line2":"Suite 2004","city":"Casper","state":"WY","zip":"82601","phone":"307-261-6413","longitude":-106.3248373,"latitude":42.8524124},{"line1":"2120 Capitol Ave.","line2":"Suite 2013","city":"Cheyenne","state":"WY","zip":"82001","phone":"307-772-2451","longitude":-104.8189674,"latitude":41.1374591},{"line1":"324 E. Washington Ave.","city":"Riverton","state":"WY","zip":"82501","phone":"307-856-6642","longitude":-108.386731,"latitude":43.0238609},{"line1":"1575 Dewar Drive","line2":"Suite 218","line3":"Commerce Bank","city":"Rock Springs","state":"WY","zip":"82901","phone":"307-362-5012","longitude":-109.2423116,"latitude":41.5742346},{"line1":"2 N. Main St.","line2":"Suite 206","city":"Sheridan","state":"WY","zip":"82801","phone":"307-672-6456","longitude":-106.9562525,"latitude":44.7974506}],"party":"Republican","phones":["202-224-6441"],"emails":[],"urls":["https://www.barrasso.senate.gov"],"photoUrl":"","channels":[{"type":"Twitter","id":"SenJohnBarrasso"},{"type":"Facebook","id":"johnbarrasso"},{"type":"YouTube","id":"barrassowyo"}],"sources":["theunitedstates.io"],"office":{"name":"United States Senate","level":"federal"}},{"name":"Michael B. Enzi","address":[{"line1":"100 E. B St.","line2":"Suite 3201","line3":"Dick Cheney Federal Building","city":"Casper","state":"WY","zip":"82601","phone":"307-261-6572","longitude":-106.3248373,"latitude":42.8524124},{"line1":"2120 Capitol Ave.","line2":"Suite 2007","line3":"Federal Center","city":"Cheyenne","state":"WY","zip":"82001","phone":"307-772-2477","longitude":-104.8189674,"latitude":41.1374591},{"line1":"1285 Sheridan Ave.","line2":"Suite 210","city":"Cody","state":"WY","zip":"82414","phone":"307-527-9444","longitude":-109.0624068,"latitude":44.52606979999999},{"line1":"222 S. Gillette Ave.","line2":"Suite 503","city":"Gillette","state":"WY","zip":"82716","phone":"307-682-6268","longitude":-105.5045976,"latitude":44.2924295},{"line1":"1110 Maple Way","line2":"Suite G","line3":"P.O. Box 12470","city":"Jackson","state":"WY","zip":"83002","phone":"307-739-9507","longitude":-110.7872894,"latitude":43.47006589999999}],"party":"Republican","phones":["202-224-3424"],"emails":[],"urls":["https://www.enzi.senate.gov"],"photoUrl":"","channels":[{"type":"Twitter","id":"SenatorEnzi"},{"type":"Facebook","id":"mikeenzi"},{"type":"YouTube","id":"senatorenzi"},{"type":"Instagram","id":"senatorenzi"}],"sources":["theunitedstates.io"],"office":{"name":"United States Senate","level":"federal"}},{"name":"Liz Cheney","address":[{"line1":"100 East B Street","line2":"Room 4003","city":"Casper","state":"WY","zip":"82602","phone":"307-261-6595","longitude":-106.3248373,"latitude":42.8524124},{"line1":"2120 Capitol Ave.","line2":"Suite 8005","city":"Cheyenne","state":"WY","zip":"82001","phone":"307-772-2595","longitude":-104.8189674,"latitude":41.1374591},{"line1":"300 S. Gillette Ave.","line2":"Suite 2001","city":"Gillette","state":"WY","zip":"82716","phone":"307-414-1677","longitude":-105.5066014,"latitude":44.2920649},{"line1":"45 E. Loucks St.","line2":"Suite 300 F","city":"Sheridan","state":"WY","zip":"82801","phone":"307-673-4608","longitude":-106.9548869,"latitude":44.7974845}],"party":"Republican","phones":["202-225-2311"],"emails":[],"urls":["https://cheney.house.gov"],"photoUrl":"","channels":[{"type":"Twitter","id":"RepLizCheney"},{"type":"Facebook","id":"replizcheney"}],"sources":["theunitedstates.io"],"office":{"name":"United States House of Representatives","level":"federal"}},{"name":"Mark Gordon","address":[],"party":"Republican","phones":["307-777-7434"],"emails":[],"urls":["http://governor.wy.gov/"],"photoUrl":"https://cdn.civil.services/us-governors/headshots/512x512/mark-gordon.jpg","channels":[{"type":"Facebook","id":"markgordon4wyoming"},{"type":"Twitter","id":"mark_gordon_wy"}],"sources":["civil.services"],"office":{"name":"Governor","level":"state"}}]