[{"name":"Mark R. Warner","address":[{"line1":"180 W. Main St.","line2":"Room 235","city":"Abingdon","state":"VA","zip":"24210","phone":"276-628-8158","longitude":-81.9767798,"latitude":36.7095562},{"line1":"101 W. Main St.","line2":"Suite 7771","city":"Norfolk","state":"VA","zip":"23510","phone":"757-441-3079","longitude":-76.293138,"latitude":36.8461399},{"line1":"919 E. Main St.","line2":"Suite 630","city":"Richmond","state":"VA","zip":"23219","phone":"804-775-2314","longitude":-77.4362913,"latitude":37.5374358},{"line1":"110 Kirk Ave. SW","city":"Roanoke","state":"VA","zip":"24011","phone":"540-857-2676","longitude":-79.942561,"latitude":37.270958},{"line1":"8000 Towers Crescent Dr.","line2":"Suite 200","city":"Vienna","state":"VA","zip":"22182","phone":"703-442-0670","longitude":-77.2196271,"latitude":38.9145473}],"party":"Democratic","phones":["202-224-2023"],"emails":[],"urls":["https://www.warner.senate.gov"],"photoUrl":"https://theunitedstates.io/images/congress/450x550/W000805.jpg","channels":[{"type":"Twitter","id":"MarkWarner"},{"type":"Facebook","id":"MarkRWarner"},{"type":"YouTube","id":"SenatorMarkWarner"},{"type":"Instagram","id":"senatorwarner"}],"sources":["theunitedstates.io"],"office":{"name":"United States Senate","level":"federal"}},{"name":"Tim Kaine","address":[{"line1":"121 Russell Rd.","line2":"Suite 2","city":"Abingdon","state":"VA","zip":"24210","phone":"276-525-4790","longitude":-81.981768,"latitude":36.709042},{"line1":"308 Craghead Street","line2":"Suite 102A","city":"Danville","state":"VA","zip":"24541","phone":"434-792-0976","longitude":-79.38939599999999,"latitude":36.5867166},{"line1":"9408 Grant Avenue","line2":"Suite 202","city":"Manassas","state":"VA","zip":"20110","phone":"703-361-3192","longitude":-77.4755912,"latitude":38.7515843},{"line1":"919 E. Main St.","line2":"Suite 970","city":"Richmond","state":"VA","zip":"23219","phone":"804-771-2221","longitude":-77.4362913,"latitude":37.5374358},{"line1":"611 S. Jefferson St.","line2":"Suite 5B","city":"Roanoke","state":"VA","zip":"24011","phone":"540-682-5693","longitude":-79.9408098,"latitude":37.268654},{"line1":"222 Central Park Ave.","line2":"Suite 120","city":"Virginia Beach","state":"VA","zip":"23462","phone":"757-518-1674","longitude":-76.13327699999999,"latitude":36.842768}],"party":"Democratic","phones":["202-224-4024"],"emails":[],"urls":["https://www.kaine.senate.gov"],"photoUrl":"https://theunitedstates.io/images/congress/450x550/K000384.jpg","channels":[{"type":"Facebook","id":"SenatorKaine"},{"type":"YouTube","id":"SenatorTimKaine"}],"sources":["theunitedstates.io"],"office":{"name":"United States Senate","level":"federal"}},{"name":"Ralph Northam","address":[],"party":"Democratic","phones":["804-786-2211"],"emails":[],"urls":["https://governor.virginia.gov/"],"photoUrl":"https://cdn.civil.services/us-governors/headshots/512x512/ralph-northam.jpg","channels":[{"type":"Facebook","id":"ralph.northam"},{"type":"Twitter","id":"ralphnortham"}],"sources":["civil.services"],"office":{"name":"Governor","level":"state"}}]